siteid,fluxnetid,keyid,sitename,countryid,land_unit,status,latitude,longitude,year_began,network1,network2,network3,koeppen_climate,gtopo30_elevation,igbp_land_use,umd_land_cover,lai_fpar,npp_land_cover,plant_functional_type,network1_id
9,AR-Lac,ar.laciguena.01,La Ciguena Santa Fe,Argentina,South America,Active,-29.264,-61.028,2004,Unaffiliated,(null),(null),Cfa - Warm temperate fully humid with hot summer,53,Croplands,Croplands,Grasses/Cereal Crops,Annual Grass Vegetation,Cereal crop,19
12,AT-Lan,at.langenfeld.01,Langenfeld,Austria,Europe,Inactive,47.061221,10.963454,2005,European Unaffiliated,(null),(null),ET - Polar tundra,1396,Evergreen Needleleaf Forest,Evergreen Needleleaf Forest,Evergreen Needleleaf Forest,Evergreen Needleleaf Vegetation,Evergreen Needleleaf Trees,40
13,AT-Leu,at.leutasch.01,Leutasch,Austria,Europe,Inactive,47.378036,11.16278,2005,European Unaffiliated,(null),(null),Dfc - Snow fully humid cool summer,1133,Grasslands,Grasslands,Grasses/Cereal Crops,Annual Grass Vegetation,Grass,40
14,AT-Neu,at.neustift.01,Neustift/Stubai Valley,Austria,Europe,Active,47.1166687,11.31750011,2002,CarboExtreme (EU-FP7),Carbomont (EU-FP5),Carbomont (EU-FP5),Dfc - Snow fully humid cool summer,1095,Mixed Forests,Mixed Forests,Evergreen Broadleaf Forest,Evergreen Broadleaf Vegetation,Evergreen Broadleaf Trees,35
15,AT-Sch,at.schlitters.01,Schlitters,Austria,Europe,Inactive,47.387291,11.247935,2005,European Unaffiliated,(null),(null),Dfc - Snow fully humid cool summer,586,Cropland/Natural Vegetation Mosaic,Mixed Forests,Evergreen Needleleaf Forest,Evergreen Needleleaf Vegetation,Evergreen Needleleaf Trees,40
17,AU-Cas,au.cairns_sugarcane.01,Burdekin Delta,Australia,Australia/Oceania,Active,-19.56666667,147.4,2000,OzFlux,(null),(null),Aw - Equatorial savannah with dry winter,5,Urban and Built-Up,Urban and Built-Up,Urban,Urban,Urban and built up,18
29,AU-Ctr,au.daintree.01,Cape Tribulation,Australia,Australia/Oceania,Active,-16.10328,145.446858,2012,OzFlux,(null),(null),Am - Equatorial monsoon,66,Evergreen Broadleaf Forest,Evergreen Broadleaf Forest,Evergreen Broadleaf Forest,Evergreen Broadleaf Vegetation,Evergreen Broadleaf Trees,18
30,AU-DaP,au.daly_cleared.01,Daly River Pasture,Australia,Australia/Oceania,Active,-14.0633,131.3181,2008,OzFlux,(null),(null),Aw - Equatorial savannah with dry winter,102,Savannas,Savannas,Savannah,Annual Grass Vegetation,Grass,18
31,AU-DaS,au.daly_savanna.01,Daly River Savanna,Australia,Australia/Oceania,Active,-14.159283,131.388,2007,OzFlux,(null),(null),Aw - Equatorial savannah with dry winter,98,Savannas,Savannas,Savannah,Annual Grass Vegetation,Grass,18
34,AU-Fac,au.falls_creek.01,Falls Creek,Australia,Australia/Oceania,Inactive,-36.86686667,147.3457667,2006,OzFlux,(null),(null),Cfb - Warm temperate fully humid with warm summer,1473,Closed Shrublands,Closed Shrublands,Shrubs,Annual Broadleaf Vegetation,Shrub,18
35,AU-Fog,au.fogg_dam.01,Fogg Dam,Australia,Australia/Oceania,Active,-12.5452,131.3072,2006,OzFlux,(null),(null),Aw - Equatorial savannah with dry winter,25,Savannas,Savannas,Savannah,Annual Grass Vegetation,Grass,18
37,AU-How,au.howardsprings.01,Howard Springs,Australia,Australia/Oceania,Active,-12.4952,131.15005,2001,OzFlux,(null),(null),Aw - Equatorial savannah with dry winter,41,Savannas,Savannas,Savannah,Deciduous Broadleaf Vegetation,Grass,18
38,AU-Jan,au.janina.01,Janina,Australia,Australia/Oceania,Inactive,-30.07666667,144.1363889,2000,Unaffiliated,(null),(null),BWh - Arid desert hot,87,Open Shrublands,Open Shrublands,Shrubs,Annual Broadleaf Vegetation,Shrub,19
40,AU-Meb,au.melbourne.01,Melbourne (Preston),Australia,Australia/Oceania,Active,-37.730564,145.014675,2003,OzFlux,(null),(null),Cfb - Warm temperate fully humid with warm summer,107,Urban and Built-Up,Urban and Built-Up,Urban,Urban,Urban and built up,18
41,AU-Otw,au.otway.01,Otway,Australia,Australia/Oceania,Active,-38.53234444,142.8168056,2007,OzFlux,(null),(null),Cfb - Warm temperate fully humid with warm summer,6,Croplands,Croplands,Grasses/Cereal Crops,Annual Grass Vegetation,Cereal crop,18
43,AU-Tum,au.tumbarumba.01,Tumbarumba,Australia,Australia/Oceania,Active,-35.6566,148.1516,2001,OzFlux,(null),(null),Cfb - Warm temperate fully humid with warm summer,932,Evergreen Broadleaf Forest,Evergreen Broadleaf Forest,Evergreen Broadleaf Forest,Evergreen Broadleaf Vegetation,Evergreen Broadleaf Trees,18
45,AU-Vir,au.virginiapark.01,Virginia Park,Australia,Australia/Oceania,Inactive,-19.88333333,146.5538889,2001,OzFlux,(null),(null),Aw - Equatorial savannah with dry winter,305,Savannas,Savannas,Savannah,Annual Grass Vegetation,Grass,18
46,AU-Wac,au.wallaby_creek.01,Wallaby Creek,Australia,Australia/Oceania,Inactive,-37.429,145.18725,2005,OzFlux,(null),(null),Cfb - Warm temperate fully humid with warm summer,562,Evergreen Broadleaf Forest,Evergreen Broadleaf Forest,Evergreen Broadleaf Forest,Evergreen Broadleaf Vegetation,Evergreen Broadleaf Trees,18
47,BE-Bra,be.braschaat.01,Brasschaat (De Inslag Forest),Belgium,Europe,Active,51.30916667,4.520555556,1996,CarboExtreme (EU-FP7),CarboEurope-IP (EU-FP6),CarboEuroFlux (EU-FP5),Cfb - Warm temperate fully humid with warm summer,15,Mixed Forests,Mixed Forests,Deciduous Broadleaf Forest,Deciduous Broadleaf Vegetation,Deciduous Broadleaf Trees,35
48,BE-Jal,be.jalhay.01,Jalhay,Belgium,Europe,Active,50.56388889,6.073333333,2006,CarboEurope-IP (EU-FP6),(null),(null),Cfb - Warm temperate fully humid with warm summer,496,Mixed Forests,Mixed Forests,Evergreen Needleleaf Forest,Evergreen Needleleaf Vegetation,Evergreen Needleleaf Trees,7
49,BE-Lon,be.lonzee.01,Lonzee,Belgium,Europe,Active,50.551586,4.7461305,2004,IMECC (EU-FP6),CarboEurope-IP (EU-FP6),(null),Cfb - Warm temperate fully humid with warm summer,165,Croplands,Croplands,Grasses/Cereal Crops,Annual Grass Vegetation,Cereal crop,32
51,BE-Vie,be.vielsalm.01,Vielsalm,Belgium,Europe,Active,50.305068,5.998052,1996,IMECC (EU-FP6),CarboEurope-IP (EU-FP6),CarboEuroFlux (EU-FP5),Cfb - Warm temperate fully humid with warm summer,491,Mixed Forests,Mixed Forests,Deciduous Broadleaf Forest,Deciduous Broadleaf Vegetation,Deciduous Broadleaf Trees,32
56,BR-Afs,br.atlantic_forest.01,Atlantic Forest Sao Paulo,Brazil,South America,Active,-23.32847222,-45.09311111,2006,Unaffiliated,(null),(null),Cfb - Warm temperate fully humid with warm summer,975,Evergreen Broadleaf Forest,Evergreen Broadleaf Forest,Evergreen Broadleaf Forest,Evergreen Broadleaf Vegetation,Evergreen Broadleaf Trees,19
58,BR-Ban,br.bananal_island.01,Ecotone Bananal Island,Brazil,South America,Active,-9.824416667,-50.15911111,2003,Unaffiliated,(null),(null),Aw - Equatorial savannah with dry winter,163,Evergreen Broadleaf Forest,Evergreen Broadleaf Forest,Evergreen Broadleaf Forest,Evergreen Broadleaf Vegetation,Evergreen Broadleaf Trees,19
60,BR-Bra,br.braganca.01,Braganca (Para),Brazil,South America,Active,-0.723708333,-48.50809722,2000,Unaffiliated,LBA,(null),Am - Equatorial monsoon,2,Cropland/Natural Vegetation Mosaic,Grasslands,Grasses/Cereal Crops,Annual Grass Vegetation,Grass,19
63,BR-Cax,br.caxiuana.01,Caxiuana Forest-Almeirim,Brazil,South America,Active,-1.719719444,-51.45898333,1999,Unaffiliated,LBA,(null),"Af - Equatorial rainforest, fully humid",1,Evergreen Broadleaf Forest,Evergreen Broadleaf Forest,Evergreen Broadleaf Forest,Evergreen Broadleaf Vegetation,Evergreen Broadleaf Trees,19
343,CN-Du1,cn.duolun_cropland.01,Duolun-cropland,China,Asia,Active,42.04555556,116.6713889,2005,AsiaFlux,(null),(null),Dwb - Snow dry winter warm summer,1278,Grasslands,Grasslands,Grasses/Cereal Crops,Annual Grass Vegetation,Grass,2
69,BR-Euc,br.eucaliptus.01,Eucaliptus Sao Paulo,Brazil,South America,Active,-21.5835,-47.60230556,2006,Unaffiliated,(null),(null),Aw - Equatorial savannah with dry winter,669,Evergreen Broadleaf Forest,Evergreen Broadleaf Forest,Evergreen Broadleaf Forest,Evergreen Broadleaf Vegetation,Evergreen Broadleaf Trees,19
71,BR-Ji1,br.jiparana_pasture.01,Rond.- Faz. Nossa Senhora-Ji Parana-pasture,Brazil,South America,Active,-10.76180556,-62.35722222,1999,Unaffiliated,LBA,(null),Aw - Equatorial savannah with dry winter,290,Savannas,Savannas,Savannah,Annual Grass Vegetation,Grass,19
72,BR-Ji2,br.jiparana_towera.01,Rond.- Rebio Jaru Ji Parana- Tower A,Brazil,South America,Active,-10.08319444,-61.93090278,1999,Unaffiliated,AERONET,LBA,Aw - Equatorial savannah with dry winter,195,Evergreen Broadleaf Forest,Evergreen Broadleaf Forest,Evergreen Broadleaf Forest,Evergreen Broadleaf Vegetation,Evergreen Broadleaf Trees,19
73,BR-Ji3,br.jiparana_towerb.02,Rond.- Rebio Jaru Ji Parana- Tower B,Brazil,South America,Active,-10.07805556,-61.93309722,1999,Unaffiliated,LBA,(null),Aw - Equatorial savannah with dry winter,196,Evergreen Broadleaf Forest,Evergreen Broadleaf Forest,Evergreen Broadleaf Forest,Evergreen Broadleaf Vegetation,Evergreen Broadleaf Trees,19
75,BR-Ma1,br.manaus_zf2km14.01,Manaus - ZF2 C14,Brazil,South America,Active,-2.589202778,-60.11490278,1999,Unaffiliated,LBA,(null),"Af - Equatorial rainforest, fully humid",91,Evergreen Broadleaf Forest,Evergreen Broadleaf Forest,Evergreen Broadleaf Forest,Evergreen Broadleaf Vegetation,Evergreen Broadleaf Trees,19
76,BR-Ma2,br.manaus_zf2km34.01,Manaus - ZF2 K34,Brazil,South America,Active,-2.609097222,-60.20929722,1999,Unaffiliated,LBA,(null),"Af - Equatorial rainforest, fully humid",67,Evergreen Broadleaf Forest,Evergreen Broadleaf Forest,Evergreen Broadleaf Forest,Evergreen Broadleaf Vegetation,Evergreen Broadleaf Trees,19
77,BR-Mtg,br.matogrosso_sinop.01,Sinop- Mato Grosso,Brazil,South America,Active,-11.41229167,-55.32470278,1999,Unaffiliated,LBA,(null),Aw - Equatorial savannah with dry winter,280,Evergreen Broadleaf Forest,Evergreen Broadleaf Forest,Evergreen Broadleaf Forest,Evergreen Broadleaf Vegetation,Evergreen Broadleaf Trees,19
79,BR-Res,br.reserva_ecologica.01,Brasilia-Reserva Ecol  Aguas Emendadas,Brazil,South America,Active,-15.55,-47.6,1999,Unaffiliated,AERONET,LBA,Aw - Equatorial savannah with dry winter,1056,Woody Savannas,Woody Savannas,Savannah,Deciduous Broadleaf Vegetation,Deciduous Broadleaf Trees,19
81,BR-Pan,br.sanchez.01,Pandeiros,Brazil,South America,Active,-14.84827778,-43.98797222,2005,Unaffiliated,(null),(null),Aw - Equatorial savannah with dry winter,465,Woody Savannas,Woody Savannas,Savannah,Deciduous Broadleaf Vegetation,Grass,19
83,BR-Sa1,br.santarem_forest.01,Santarem-Km67-Primary Forest,Brazil,South America,Active,-2.856666667,-54.95888889,2001,AmeriFlux,AERONET,LBA,Am - Equatorial monsoon,90,Evergreen Broadleaf Forest,Evergreen Broadleaf Forest,Evergreen Broadleaf Forest,Evergreen Broadleaf Vegetation,Evergreen Broadleaf Trees,1
84,BR-Sa2,br.santarem_km77_pasture.01,Santarem-Km77-Pasture,Brazil,South America,Inactive,-3.0118955,-54.53652,1999,Unaffiliated,LBA,(null),Am - Equatorial monsoon,37,Evergreen Broadleaf Forest,Evergreen Broadleaf Forest,Evergreen Broadleaf Forest,Evergreen Broadleaf Vegetation,Evergreen Broadleaf Trees,19
85,BR-Sa3,br.santarem_km83_loggedforest.01,Santarem-Km83-Logged Forest,Brazil,South America,Inactive,-3.01802927,-54.97143509,2000,AmeriFlux,LBA,(null),Am - Equatorial monsoon,100,Evergreen Broadleaf Forest,Evergreen Broadleaf Forest,Evergreen Broadleaf Forest,Evergreen Broadleaf Vegetation,Evergreen Broadleaf Trees,1
88,BR-Sga,br.saogabriel.01,Sao Gabriel da Cachoeira,Brazil,South America,Active,0.212333333,-66.76473333,2004,Unaffiliated,LBA,(null),"Af - Equatorial rainforest, fully humid",104,Evergreen Broadleaf Forest,Evergreen Broadleaf Forest,Evergreen Broadleaf Forest,Evergreen Broadleaf Vegetation,Evergreen Broadleaf Trees,19
89,BR-Sp1,br.saopaulo_savannah.01,Sao Paulo Cerrado,Brazil,South America,Active,-21.61947222,-47.64988889,1998,Unaffiliated,(null),(null),Aw - Equatorial savannah with dry winter,641,Evergreen Broadleaf Forest,Evergreen Broadleaf Forest,Evergreen Broadleaf Forest,Evergreen Broadleaf Vegetation,Evergreen Broadleaf Trees,19
90,BR-Sp2,br.saopaulo_sugarcane.01,Sao Paulo Sugar Cane,Brazil,South America,Active,-21.63705556,-47.79025,1996,Unaffiliated,(null),(null),Aw - Equatorial savannah with dry winter,587,Woody Savannas,Woody Savannas,Savannah,Evergreen Broadleaf Vegetation,Shrub,19
91,BR-Su1,br.sujo_bienal.01,Brasilia - Campo Sujo Bienal Tardia,Brazil,South America,Active,-15.95,-47.86666667,1999,Unaffiliated,LBA,(null),Aw - Equatorial savannah with dry winter,1096,Woody Savannas,Woody Savannas,Savannah,Deciduous Broadleaf Vegetation,Deciduous Broadleaf Trees,19
92,BR-Su2,br.sujo_quadrienal.01,Brasilia - Campo Sujo Quadrienal,Brazil,South America,Active,-15.95,-47.86666667,1999,Unaffiliated,(null),(null),Aw - Equatorial savannah with dry winter,1096,Woody Savannas,Woody Savannas,Savannah,Deciduous Broadleaf Vegetation,Deciduous Broadleaf Trees,19
93,BW-Ghz,bw.ghanzi.01,Ghanzi/Okwa River Crossing,Botswana,Africa,Inactive,-22.40916667,21.71305556,2002,European Unaffiliated,(null),(null),BSh - Arid Steppe hot,1073,Open Shrublands,Open Shrublands,Shrubs,Annual Broadleaf Vegetation,Shrub,40
94,BW-Ma1,bw.maun.01,Maun- Mopane Woodland,Botswana,Africa,Active,-19.9165,23.56033333,1999,CarboAfrica (EU-FP6),(null),(null),BSh - Arid Steppe hot,(null),Savannas,Savannas,Savannah,Annual Grass Vegetation,Grass,4
95,BW-Ma2,bw.maun.02,Maun- Floodplain,Botswana,Africa,Inactive,-19.60759167,23.28693056,(null),AERONET,(null),(null),BSh - Arid Steppe hot,(null),Permanent Wetlands,Savannas,Savannah,Deciduous Broadleaf Vegetation,Deciduous Broadleaf Trees,26
118,ON-JMW,(null),Ontario Juvenile Mixedwood,Canada,North America,Active,48.133,-81.628,2006,Canadian Carbon Program (CCP),(null),(null),(null),(null),(null),(null),(null),(null),(null),3
119,CA-Cbo,ca.camp_borden.01,ON-Borden Mixedwood,Canada,North America,Active,44.3185,-79.9342,1995,Canadian Carbon Program (CCP),(null),(null),Dfb - Snow fully humid warm summer,217,Mixed Forests,Mixed Forests,Deciduous Broadleaf Forest,Deciduous Broadleaf Vegetation,Deciduous Broadleaf Trees,3
120,CA-Ca1,ca.campbell_river.01,BC-Campbell River 1949 Douglas-fir,Canada,North America,Active,49.86725,-125.3336,1997,Canadian Carbon Program (CCP),(null),(null),"Csb - Warm temperate with dry, warm summer",313,Evergreen Needleleaf Forest,Evergreen Needleleaf Forest,Evergreen Needleleaf Forest,Evergreen Needleleaf Vegetation,Evergreen Needleleaf Trees,3
121,CA-Ca2,ca.campbell_river_cut.01,BC-Campbell River 2000 Douglas-fir,Canada,North America,Active,49.87048,-125.29087,2000,Canadian Carbon Program (CCP),(null),(null),"Csb - Warm temperate with dry, warm summer",170,Evergreen Needleleaf Forest,Evergreen Needleleaf Forest,Evergreen Needleleaf Forest,Evergreen Needleleaf Vegetation,Evergreen Needleleaf Trees,3
122,CA-Ca3,ca.campbell_river_yng.01,BC-Campbell River 1988 Douglas-fir,Canada,North America,Active,49.53462,-124.90044,2001,Canadian Carbon Program (CCP),(null),(null),Cfb - Warm temperate fully humid with warm summer,153,Evergreen Needleleaf Forest,Evergreen Needleleaf Forest,Evergreen Needleleaf Forest,Evergreen Needleleaf Vegetation,Evergreen Needleleaf Trees,3
125,CA-Cha,ca.charlie1.01,NB-Charlie Lake 1 1975 Balsam Fir,Canada,North America,Inactive,45.8847,-67.3569,2003,Canadian Carbon Program (CCP),(null),(null),Dfb - Snow fully humid warm summer,150,Mixed Forests,Mixed Forests,Evergreen Needleleaf Forest,Evergreen Needleleaf Vegetation,Evergreen Needleleaf Trees,3
214,US-KFS,(null),Kansas Field Station,United States,North America,Active,39.0561,-95.1907,2007,AmeriFlux,(null),(null),Cfa - Warm temperate fully humid with hot summer,(null),Cropland/Natural Vegetation Mosaic,Grasslands,Grasses/Cereal Crops,Annual Grass Vegetation,Grass,1
227,CA-Gro,ca.groundhogriver.01,ON-Groundhog River Mixedwood,Canada,North America,Active,48.2173,-82.1555,2003,Canadian Carbon Program (CCP),(null),(null),Dfb - Snow fully humid warm summer,355,Mixed Forests,Mixed Forests,Evergreen Needleleaf Forest,Evergreen Needleleaf Vegetation,Evergreen Needleleaf Trees,3
233,CA-Let,ca.lethbridge.01,AB-Lethbridge Grassland,Canada,North America,Active,49.70919,-112.94025,1998,Canadian Carbon Program (CCP),(null),(null),Dfb - Snow fully humid warm summer,926,Grasslands,Grasslands,Grasses/Cereal Crops,Annual Grass Vegetation,Grass,3
234,CA-Man,ca.manitoba.01,MB-Northern Old Black Spruce,Canada,North America,Inactive,55.88,-98.481,1994,Canadian Carbon Program (CCP),MARCONI,(null),Dfc - Snow fully humid cool summer,253,Evergreen Needleleaf Forest,Evergreen Needleleaf Forest,Evergreen Needleleaf Forest,Evergreen Needleleaf Vegetation,Evergreen Needleleaf Trees,3
235,CA-Mer,ca.mer_bleue.01,ON-Mer Bleue Eastern Peatland,Canada,North America,Active,45.4094,-75.5187,1998,Canadian Carbon Program (CCP),(null),(null),Dfb - Snow fully humid warm summer,65,Permanent Wetlands,Closed Shrublands,Shrubs,Annual Broadleaf Vegetation,Shrub,3
239,CA-Na1,ca.nashwaak1.01,NB-Nashwaak Lake 1 1967 Balsam Fir,Canada,North America,Inactive,46.47384,-67.09933,2003,Canadian Carbon Program (CCP),(null),(null),Dfb - Snow fully humid warm summer,325,Mixed Forests,Mixed Forests,Deciduous Broadleaf Forest,Deciduous Broadleaf Vegetation,Deciduous Broadleaf Trees,3
240,CA-Na2,ca.nashwaak2.01,NB-Nashwaak Lake 2 1975 Balsam Fir,Canada,North America,Inactive,46.47583333,-67.07694444,2003,Canadian Carbon Program (CCP),(null),(null),Dfb - Snow fully humid warm summer,338,Mixed Forests,Mixed Forests,Evergreen Needleleaf Forest,Evergreen Needleleaf Vegetation,Evergreen Needleleaf Trees,3
244,CA-NS1,ca.nsa_burn_1850.01,UCI 1850,Canada,North America,Inactive,55.87916667,-98.48388889,2000,AmeriFlux,(null),(null),Dfc - Snow fully humid cool summer,253,Evergreen Needleleaf Forest,Evergreen Needleleaf Forest,Evergreen Needleleaf Forest,Evergreen Needleleaf Vegetation,Evergreen Needleleaf Trees,1
245,CA-NS2,ca.nsa_burn_1930.01,UCI 1930,Canada,North America,Inactive,55.90583333,-98.52472222,2000,AmeriFlux,(null),(null),Dfc - Snow fully humid cool summer,257,Evergreen Needleleaf Forest,Evergreen Needleleaf Forest,Evergreen Needleleaf Forest,Evergreen Needleleaf Vegetation,Evergreen Needleleaf Trees,1
246,CA-NS3,ca.nsa_burn_1964.01,UCI 1964,Canada,North America,Inactive,55.91166667,-98.38222222,2000,AmeriFlux,(null),(null),Dfc - Snow fully humid cool summer,257,Evergreen Needleleaf Forest,Evergreen Needleleaf Forest,Evergreen Needleleaf Forest,Evergreen Needleleaf Vegetation,Evergreen Needleleaf Trees,1
247,CA-NS4,ca.nsa_burn_1964_wet.01,UCI 1964wet,Canada,North America,Inactive,55.91166667,-98.38222222,2001,AmeriFlux,(null),(null),Dfc - Snow fully humid cool summer,257,Evergreen Needleleaf Forest,Evergreen Needleleaf Forest,Evergreen Needleleaf Forest,Evergreen Needleleaf Vegetation,Evergreen Needleleaf Trees,1
248,CA-NS5,ca.nsa_burn_1981.01,UCI 1981,Canada,North America,Inactive,55.86305556,-98.485,2000,AmeriFlux,(null),(null),Dfc - Snow fully humid cool summer,254,Evergreen Needleleaf Forest,Evergreen Needleleaf Forest,Evergreen Needleleaf Forest,Evergreen Needleleaf Vegetation,Evergreen Needleleaf Trees,1
249,CA-NS6,ca.nsa_burn_1989.01,UCI 1989,Canada,North America,Inactive,55.91666667,-98.96444444,2000,AmeriFlux,(null),(null),Dfc - Snow fully humid cool summer,245,Evergreen Needleleaf Forest,Evergreen Needleleaf Forest,Evergreen Needleleaf Forest,Evergreen Needleleaf Vegetation,Evergreen Needleleaf Trees,1
250,CA-NS7,ca.nsa_burn_1998.01,UCI 1998,Canada,North America,Inactive,56.63583333,-99.94833333,1999,AmeriFlux,(null),(null),Dfc - Snow fully humid cool summer,291,Evergreen Needleleaf Forest,Evergreen Needleleaf Forest,Evergreen Needleleaf Forest,Evergreen Needleleaf Vegetation,Evergreen Needleleaf Trees,1
251,CA-NS8,ca.nsa_burn_2003.01,UCI 2003,Canada,North America,Inactive,55.89805556,-98.21611111,2001,AmeriFlux,(null),(null),Dfc - Snow fully humid cool summer,276,Evergreen Needleleaf Forest,Evergreen Needleleaf Forest,Evergreen Needleleaf Forest,Evergreen Needleleaf Vegetation,Evergreen Needleleaf Trees,1
258,CA-Oas,ca.oldaspen.01,SK-Old Aspen,Canada,North America,Active,53.62889,-106.19779,1996,Canadian Carbon Program (CCP),BERMS,(null),Dfc - Snow fully humid cool summer,580,Mixed Forests,Mixed Forests,Deciduous Needleleaf Forest,Deciduous Needleleaf Vegetation,Deciduous Needleleaf Trees,3
259,CA-Obs,ca.oldblackspruce.01,SK-Southern Old Black Spruce,Canada,North America,Active,53.98717,-105.11779,1994,Canadian Carbon Program (CCP),BERMS,(null),Dfc - Snow fully humid cool summer,598,Evergreen Needleleaf Forest,Evergreen Needleleaf Forest,Evergreen Needleleaf Forest,Evergreen Needleleaf Vegetation,Evergreen Needleleaf Trees,3
260,CA-Ojp,ca.oldjackpine.01,SK-Old Jack Pine,Canada,North America,Active,53.91634,-104.69203,1994,Canadian Carbon Program (CCP),BERMS,MARCONI,Dfc - Snow fully humid cool summer,518,Evergreen Needleleaf Forest,Evergreen Needleleaf Forest,Evergreen Needleleaf Forest,Evergreen Needleleaf Vegetation,Evergreen Needleleaf Trees,3
268,CA-Qcu,ca.quebeccutover.01,QC-2000 Harvested Black Spruce/Jack Pine (HBS00),Canada,North America,Active,49.26708,-74.03653,2001,Canadian Carbon Program (CCP),(null),(null),Dfc - Snow fully humid cool summer,412,Evergreen Needleleaf Forest,Evergreen Needleleaf Forest,Evergreen Needleleaf Forest,Evergreen Needleleaf Vegetation,Evergreen Needleleaf Trees,3
269,CA-Qfo,ca.quebecforest.01,QC-Eastern Old Black Spruce (EOBS),Canada,North America,Active,49.69247,-74.34204,2003,Canadian Carbon Program (CCP),(null),(null),Dfc - Snow fully humid cool summer,390,Evergreen Needleleaf Forest,Evergreen Needleleaf Forest,Evergreen Needleleaf Forest,Evergreen Needleleaf Vegetation,Evergreen Needleleaf Trees,3
273,CA-SF1,ca.saskfire77.01,SK-1977 Fire,Canada,North America,Inactive,54.48495,-105.81735,2003,BERMS,Canadian Carbon Program (CCP),(null),Dfc - Snow fully humid cool summer,566,Evergreen Needleleaf Forest,Evergreen Needleleaf Forest,Evergreen Needleleaf Forest,Evergreen Needleleaf Vegetation,Evergreen Needleleaf Trees,27
276,CA-Fen,ca.ssa_fen.01,SK-Fen,Canada,North America,Active,53.80206,-104.61798,2002,Canadian Carbon Program (CCP),BERMS,(null),Dfc - Snow fully humid cool summer,494,Evergreen Needleleaf Forest,Evergreen Needleleaf Forest,Evergreen Needleleaf Forest,Evergreen Needleleaf Vegetation,Evergreen Needleleaf Trees,3
277,CA-SF2,ca.ssa_fire_1989.01,SK-1989 Fire,Canada,North America,Inactive,54.25392,-105.8775,2001,Canadian Carbon Program (CCP),(null),(null),Dfc - Snow fully humid cool summer,511,Mixed Forests,Mixed Forests,Evergreen Needleleaf Forest,Evergreen Needleleaf Vegetation,Evergreen Needleleaf Trees,3
278,CA-SF3,ca.ssa_fire_1998.01,SK-1998 Fire,Canada,North America,Inactive,54.09156,-106.00526,2002,Canadian Carbon Program (CCP),(null),(null),Dfc - Snow fully humid cool summer,561,Evergreen Needleleaf Forest,Evergreen Needleleaf Forest,Evergreen Needleleaf Forest,Evergreen Needleleaf Vegetation,Evergreen Needleleaf Trees,3
279,CA-SJ1,ca.ssa_jackpine_1994.01,SK-1994 Jack Pine,Canada,North America,Active,53.9084,-104.6559,2001,Canadian Carbon Program (CCP),BERMS,(null),Dfc - Snow fully humid cool summer,520,Evergreen Needleleaf Forest,Evergreen Needleleaf Forest,Evergreen Needleleaf Forest,Evergreen Needleleaf Vegetation,Evergreen Needleleaf Trees,3
280,CA-SJ2,ca.ssa_jackpine_2002.01,SK-2002 Jack Pine,Canada,North America,Active,53.9447,-104.6493,2003,Canadian Carbon Program (CCP),BERMS,(null),Dfc - Snow fully humid cool summer,524,Evergreen Needleleaf Forest,Evergreen Needleleaf Forest,Evergreen Needleleaf Forest,Evergreen Needleleaf Vegetation,Evergreen Needleleaf Trees,3
284,CA-SJ3,ca.ssa_yngjackpine.01,SK-1975 (Young) Jack Pine,Canada,North America,Active,53.87581,-104.64529,2003,Canadian Carbon Program (CCP),BERMS,AERONET,Dfc - Snow fully humid cool summer,495,Evergreen Needleleaf Forest,Evergreen Needleleaf Forest,Evergreen Needleleaf Forest,Evergreen Needleleaf Vegetation,Evergreen Needleleaf Trees,3
287,CA-TP1,ca.turkeypoint.01,ON-Turkey Point 2002 White Pine,Canada,North America,Active,42.66093611,-80.55951944,2003,Canadian Carbon Program (CCP),(null),(null),Dfb - Snow fully humid warm summer,197,Cropland/Natural Vegetation Mosaic,Croplands,Broadleaf Crops,Annual Broadleaf Vegetation,Broadleaf crop,3
288,CA-TP2,ca.turkeypoint15.01,ON-Turkey Point 1989 White Pine,Canada,North America,Inactive,42.77441944,-80.458775,2003,Canadian Carbon Program (CCP),(null),(null),Dfb - Snow fully humid warm summer,239,Cropland/Natural Vegetation Mosaic,Mixed Forests,Deciduous Broadleaf Forest,Deciduous Broadleaf Vegetation,Deciduous Broadleaf Trees,3
289,CA-TP3,ca.turkeypoint30.01,ON-Turkey Point 1974 White Pine,Canada,North America,Active,42.70681111,-80.34831389,2003,Canadian Carbon Program (CCP),(null),(null),Dfb - Snow fully humid warm summer,216,Mixed Forests,Mixed Forests,Evergreen Needleleaf Forest,Evergreen Needleleaf Vegetation,Evergreen Needleleaf Trees,3
290,CA-TP4,ca.turkeypoint60.01,ON-Turkey Point 1939 White Pine,Canada,North America,Active,42.70977778,-80.3574,2003,Canadian Carbon Program (CCP),(null),(null),Dfb - Snow fully humid warm summer,219,Mixed Forests,Mixed Forests,Evergreen Needleleaf Forest,Evergreen Needleleaf Vegetation,Evergreen Needleleaf Trees,3
292,CA-WP1,ca.westernpeatland.01,AB-Western Peatland,Canada,North America,Inactive,54.95384,-112.46698,2003,Canadian Carbon Program (CCP),(null),(null),Dfc - Snow fully humid cool summer,549,Mixed Forests,Mixed Forests,Evergreen Needleleaf Forest,Evergreen Needleleaf Vegetation,Evergreen Needleleaf Trees,3
296,CG-Euc,cd.congo_eucalyptus.01,Eucalyptus of Congo-Hinda,Congo - Kinshasa,Africa,Active,-4,12,2000,CarboEuroFlux (EU-FP5),(null),(null),Aw - Equatorial savannah with dry winter,331,Evergreen Broadleaf Forest,Evergreen Broadleaf Forest,Evergreen Broadleaf Forest,Evergreen Broadleaf Vegetation,Evergreen Broadleaf Trees,5
304,CH-Cha,ch.chamau.01,Chamau grassland,Switzerland,Europe,Active,47.21022222,8.410444444,2006,GHG-Europe (EU-FP7),Swiss Fluxnet,CarboExtreme (EU-FP7),Cfb - Warm temperate fully humid with warm summer,394,Cropland/Natural Vegetation Mosaic,Grasslands,Grasses/Cereal Crops,Annual Grass Vegetation,Grass,37
306,CH-Fru,ch.fruebuel.01,Fruebuel grassland,Switzerland,Europe,Active,47.11583333,8.537777778,2006,GHG-Europe (EU-FP7),Swiss Fluxnet,CarboExtreme (EU-FP7),Cfb - Warm temperate fully humid with warm summer,975,Cropland/Natural Vegetation Mosaic,Grasslands,Grasses/Cereal Crops,Annual Grass Vegetation,Grass,37
308,CH-Lae,ch.laegeren.01,Laegeren,Switzerland,Europe,Active,47.47808333,8.365,2004,GHG-Europe (EU-FP7),Swiss Fluxnet,CarboEurope-IP (EU-FP6),Cfb - Warm temperate fully humid with warm summer,645,Mixed Forests,Mixed Forests,Deciduous Broadleaf Forest,Deciduous Broadleaf Vegetation,Deciduous Broadleaf Trees,37
313,CH-Oe1,ch.oensingen.01,Oensingen1 grass,Switzerland,Europe,Active,47.28583333,7.731944444,2002,CarboEurope-IP (EU-FP6),Swiss Fluxnet,Greengrass (EU-FP5),Cfb - Warm temperate fully humid with warm summer,451,Croplands,Croplands,Grasses/Cereal Crops,Annual Grass Vegetation,Cereal crop,7
314,CH-Oe2,ch.oensingen.02,Oensingen2 crop,Switzerland,Europe,Active,47.28630556,7.734333333,2004,GHG-Europe (EU-FP7),Swiss Fluxnet,CarboExtreme (EU-FP7),Cfb - Warm temperate fully humid with warm summer,450,Croplands,Croplands,Grasses/Cereal Crops,Annual Grass Vegetation,Cereal crop,37
318,CH-See,ch.seebodenalp.01,Seebodenalp,Switzerland,Europe,Inactive,47.0567,8.4644,2002,European Unaffiliated,Carbomont (EU-FP5),(null),Cfb - Warm temperate fully humid with warm summer,1068,Mixed Forests,Mixed Forests,Evergreen Needleleaf Forest,Evergreen Needleleaf Vegetation,Evergreen Needleleaf Trees,40
319,CH-Dav,ch.seehornwald.01,Davos- Seehorn forest,Switzerland,Europe,Active,46.81533333,9.855916667,1997,GHG-Europe (EU-FP7),Swiss Fluxnet,CarboExtreme (EU-FP7),ET - Polar tundra,1762,Evergreen Needleleaf Forest,Evergreen Needleleaf Forest,Evergreen Needleleaf Forest,Evergreen Needleleaf Vegetation,Evergreen Needleleaf Trees,37
326,CN-Bed,cn.beijing_daxing.01,Beijing Daxing,China,Asia,Active,39.53055556,116.2519444,2005,Unaffiliated,(null),(null),Dwa - Snow dry winter hot summer,30,Croplands,Croplands,Grasses/Cereal Crops,Annual Grass Vegetation,Cereal crop,19
327,CN-Cha,cn.changbaishan.01,Changbaishan,China,Asia,Active,42.4025,128.0958333,2002,ChinaFlux,(null),(null),Dwb - Snow dry winter warm summer,754,Mixed Forests,Mixed Forests,Deciduous Broadleaf Forest,Deciduous Broadleaf Vegetation,Deciduous Broadleaf Trees,10
334,CN-Dan,cn.dangxiong.01,Damxung,China,Asia,Active,30.85,91.08333333,2003,ChinaFlux,(null),(null),ET - Polar tundra,4751,Grasslands,Grasslands,Grasses/Cereal Crops,Annual Grass Vegetation,Grass,10
335,CN-Din,cn.dinghushan.01,Dinghushan,China,Asia,Active,23.16666667,112.5333333,2002,ChinaFlux,(null),(null),Cfa - Warm temperate fully humid with hot summer,261,Evergreen Broadleaf Forest,Evergreen Broadleaf Forest,Evergreen Broadleaf Forest,Evergreen Broadleaf Vegetation,Evergreen Broadleaf Trees,10
336,CN-Do1,cn.dongtan1.01,Dongtan 1,China,Asia,Active,31.5167,121.9607,2004,USCCC,AsiaFlux,(null),Cfa - Warm temperate fully humid with hot summer,6,Water,Water,Water,Water,Water,23
337,CN-Do2,cn.dongtan2.01,Dongtan 2,China,Asia,Active,31.5847,121.9035,2004,USCCC,AsiaFlux,(null),Cfa - Warm temperate fully humid with hot summer,4,Woody Savannas,Woody Savannas,Savannah,Annual Grass Vegetation,Shrub,23
338,CN-Do3,cn.dongtan3.01,Dongtan 3,China,Asia,Active,31.5169,121.9717,2004,USCCC,AsiaFlux,(null),Cfa - Warm temperate fully humid with hot summer,6,Water,Water,Water,Water,Water,23
340,CN-Dwu,cn.dongwu_grassland.01,Dongwu-grassland,China,Asia,Intermittent,45.56013889,117.0002778,2005,AsiaFlux,(null),(null),Dwc - Snow dry winter cool summer,875,Grasslands,Grasslands,Grasses/Cereal Crops,Annual Grass Vegetation,Grass,2
344,CN-Du2,cn.duolun_grassland.01,Duolun-grassland,China,Asia,Active,42.04666667,116.2836111,2005,AsiaFlux,(null),(null),Dwb - Snow dry winter warm summer,1331,Grasslands,Grasslands,Grasses/Cereal Crops,Annual Grass Vegetation,Grass,2
345,CN-Hab,cn.haibei.01,Haibei Meadow,China,Asia,Active,37.613333,101.305,2002,ChinaFlux,(null),(null),ET - Polar tundra,3183,Grasslands,Grasslands,Grasses/Cereal Crops,Annual Grass Vegetation,Grass,10
348,CN-Hug,cn.hulunber.01,Hulunbeier temperate meadow steppe,China,Asia,Inactive,49.32695,120.0503833,2006,ChinaFlux,(null),(null),Dwc - Snow dry winter cool summer,631,Grasslands,Grasslands,Grasses/Cereal Crops,Annual Grass Vegetation,Grass,10
352,CN-Ku1,cn.kubuqi_forest.01,Kubuqi-populus forest,China,Asia,Active,40.53833333,108.6936111,2005,AsiaFlux,(null),(null),BSk - Arid Steppe cold,1023,Grasslands,Grasslands,Grasses/Cereal Crops,Annual Grass Vegetation,Grass,2
353,CN-Ku2,cn.kubuqi_shrubland.01,Kubuqi-shrubland,China,Asia,Active,40.38083333,108.5486111,2005,AsiaFlux,(null),(null),BSk - Arid Steppe cold,1156,Grasslands,Grasslands,Grasses/Cereal Crops,Annual Grass Vegetation,Grass,2
358,CN-Qia,cn.qianyanzhou.01,Qianyanzhou,China,Asia,Active,26.73333333,115.0666667,2002,ChinaFlux,(null),(null),Cfa - Warm temperate fully humid with hot summer,64,Woody Savannas,Woody Savannas,Savannah,Evergreen Broadleaf Vegetation,Shrub,10
375,CN-Xi1,cn.xilinhot.01,Xilinhot-degraded Leymus grassland,China,Asia,Active,43.55444444,116.2797222,2005,AsiaFlux,(null),(null),Dwb - Snow dry winter warm summer,1293,Grasslands,Grasslands,Grasses/Cereal Crops,Annual Grass Vegetation,Grass,2
376,CN-Xsh,cn.xishuangbanna.01,Xishuangbanna,China,Asia,Active,21.960833,101.200278,2002,ChinaFlux,(null),(null),Cwa - Warm temperate with dry winter and hot summer,732,Evergreen Broadleaf Forest,Evergreen Broadleaf Forest,Evergreen Broadleaf Forest,Evergreen Broadleaf Vegetation,Evergreen Broadleaf Trees,10
377,CN-Yuc,cn.yucheng.01,Yucheng,China,Asia,Active,36.95,116.6,(null),ChinaFlux,(null),(null),Cwa - Warm temperate with dry winter and hot summer,13,Croplands,Croplands,Grasses/Cereal Crops,Annual Grass Vegetation,Cereal crop,10
380,CN-Zha,cn.zhangye_oasis.01,Zhangye Oasis,China,Asia,Inactive,39,100,1992,AsiaFlux,(null),(null),BSk - Arid Steppe cold,1877,Grasslands,Grasslands,Grasses/Cereal Crops,Annual Grass Vegetation,Grass,2
382,CR-Lse,cr.la_selva.01,La Selva,Costa Rica,South America,Inactive,10.42333333,-84.02111111,1998,AmeriFlux,(null),(null),Am - Equatorial monsoon,93,Evergreen Broadleaf Forest,Evergreen Broadleaf Forest,Evergreen Broadleaf Forest,Evergreen Broadleaf Vegetation,Evergreen Broadleaf Trees,1
383,CR-Lin,cr.los_inocentes.01,Los Inocentes,Costa Rica,South America,Inactive,11.01667,-85.5,2005,Unaffiliated,(null),(null),Aw - Equatorial savannah with dry winter,310,Evergreen Broadleaf Forest,Evergreen Broadleaf Forest,Evergreen Broadleaf Forest,Evergreen Broadleaf Vegetation,Evergreen Broadleaf Trees,19
384,CR-Sro,cr.santa_rosa.01,Santa Rosa National Park,Costa Rica,South America,Active,10.81472,-85.615,2005,Unaffiliated,(null),(null),Aw - Equatorial savannah with dry winter,258,Cropland/Natural Vegetation Mosaic,Woody Savannas,Savannah,Deciduous Broadleaf Vegetation,Grass,19
386,CZ-BK1,cz.bilykriz.01,Bily Kriz- Beskidy Mountains,Czech Republic,Europe,Active,49.5021286,18.53685951,2000,GHG-Europe (EU-FP7),CarboEurope-IP (EU-FP6),CarboEuroFlux (EU-FP5),Dfb - Snow fully humid warm summer,862,Evergreen Needleleaf Forest,Evergreen Needleleaf Forest,Evergreen Needleleaf Forest,Evergreen Needleleaf Vegetation,Evergreen Needleleaf Trees,37
387,DE-Ber,de.berch.01,Berchtesgaden,Germany,Europe,Active,47.61666667,12.58333333,2002,Carbomont (EU-FP5),(null),(null),Dfb - Snow fully humid warm summer,1360,Mixed Forests,Mixed Forests,Evergreen Needleleaf Forest,Evergreen Needleleaf Vegetation,Evergreen Needleleaf Trees,9
389,DE-Geb,de.gebesee.01,Gebesee,Germany,Europe,Active,51.1001,10.9143,2001,IMECC (EU-FP6),CarboEurope-IP (EU-FP6),(null),Cfb - Warm temperate fully humid with warm summer,157,Croplands,Croplands,Grasses/Cereal Crops,Annual Grass Vegetation,Cereal crop,32
391,DE-Gri,de.grillenburg.01,Grillenburg- grass station,Germany,Europe,Active,50.94946944,13.512525,2004,CarboEurope-IP (EU-FP6),(null),(null),Cfb - Warm temperate fully humid with warm summer,377,Mixed Forests,Mixed Forests,Deciduous Broadleaf Forest,Deciduous Broadleaf Vegetation,Deciduous Broadleaf Trees,7
392,DE-Hai,de.hainich_park.01,Hainich,Germany,Europe,Active,51.07916667,10.453,2000,CarboEurope-IP (EU-FP6),CarboEuroFlux (EU-FP5),(null),Cfb - Warm temperate fully humid with warm summer,433,Mixed Forests,Mixed Forests,Deciduous Broadleaf Forest,Deciduous Broadleaf Vegetation,Deciduous Broadleaf Trees,7
394,DE-Kan,de.kannenbruch.01,Kannenbruch Forest,Germany,Europe,Active,53.784328,10.604899,2001,European Unaffiliated,Carbomont (EU-FP5),(null),Cfb - Warm temperate fully humid with warm summer,15,Mixed Forests,Mixed Forests,Deciduous Broadleaf Forest,Deciduous Broadleaf Vegetation,Deciduous Broadleaf Trees,40
395,DE-Kli,de.klingenberg.01,Klingenberg,Germany,Europe,Active,50.8928806,13.5225056,2004,CarboEurope-IP (EU-FP6),(null),(null),Cfb - Warm temperate fully humid with warm summer,468,Croplands,Croplands,Grasses/Cereal Crops,Annual Grass Vegetation,Cereal crop,7
396,DE-Lnf,de.leinefelde.01,Leinefelde,Germany,Europe,Inactive,51.3282167,10.3678,2012,European Unaffiliated,(null),(null),Cfb - Warm temperate fully humid with warm summer,456,Deciduous Broadleaf Forest,Deciduous Broadleaf Forest,Deciduous Broadleaf Forest,Deciduous Broadleaf Vegetation,Deciduous Broadleaf Trees,40
399,DE-Meh,de.mehrstedt.01,Mehrstedt1,Germany,Europe,Active,51.27530556,10.65547222,2003,CarboEurope-IP (EU-FP6),(null),(null),Cfb - Warm temperate fully humid with warm summer,291,Croplands,Croplands,Grasses/Cereal Crops,Annual Grass Vegetation,Cereal crop,7
401,DE-Obe,de.oberbarenburg.01,Oberbarenburg,Germany,Europe,Active,50.7836167,13.7196306,2004,European Unaffiliated,(null),(null),Cfb - Warm temperate fully humid with warm summer,695,Evergreen Needleleaf Forest,Evergreen Needleleaf Forest,Evergreen Needleleaf Forest,Evergreen Needleleaf Vegetation,Evergreen Needleleaf Trees,40
402,DE-Sch,de.schonau.01,Schonau,Germany,Europe,Active,47.6,12.96666667,2004,European Unaffiliated,(null),(null),Cfb - Warm temperate fully humid with warm summer,684,Evergreen Needleleaf Forest,Evergreen Needleleaf Forest,Evergreen Needleleaf Forest,Evergreen Needleleaf Vegetation,Evergreen Needleleaf Trees,40
403,DE-Sol,de.solling.01,Solling F1,Germany,Europe,Active,51.76666667,9.583333333,1995,Unaffiliated,EuroFlux (EU-FP4),(null),Cfb - Warm temperate fully humid with warm summer,484,Evergreen Needleleaf Forest,Evergreen Needleleaf Forest,Evergreen Needleleaf Forest,Evergreen Needleleaf Vegetation,Evergreen Needleleaf Trees,19
404,DE-Tha,de.tharandt.01,Tharandt- Anchor Station,Germany,Europe,Active,50.96361111,13.56694444,1996,CarboExtreme (EU-FP7),CarboEurope-IP (EU-FP6),CarboEuroFlux (EU-FP5),Cfb - Warm temperate fully humid with warm summer,320,Evergreen Needleleaf Forest,Evergreen Needleleaf Forest,Evergreen Needleleaf Forest,Evergreen Needleleaf Vegetation,Evergreen Needleleaf Trees,35
405,DE-Bay,de.weidenbrunnen.01,Bayreuth-Waldstein / Weidenbrunnen,Germany,Europe,Inactive,50.14194,11.86694,1996,EuroFlux (EU-FP4),(null),(null),Cfb - Warm temperate fully humid with warm summer,781,Mixed Forests,Mixed Forests,Evergreen Needleleaf Forest,Evergreen Needleleaf Vegetation,Evergreen Needleleaf Trees,11
406,DE-Wet,de.wetzstein.01,Wetzstein,Germany,Europe,Active,50.4535,11.45753333,2002,CarboEurope-IP (EU-FP6),(null),(null),Cfb - Warm temperate fully humid with warm summer,703,Evergreen Needleleaf Forest,Evergreen Needleleaf Forest,Evergreen Needleleaf Forest,Evergreen Needleleaf Vegetation,Evergreen Needleleaf Trees,7
410,DK-Fou,dk.foulum.01,Foulum,Denmark,Europe,Active,56.48419952,9.587220192,2004,CarboEurope-IP (EU-FP6),(null),(null),Cfb - Warm temperate fully humid with warm summer,55,Croplands,Croplands,Grasses/Cereal Crops,Annual Grass Vegetation,Cereal crop,7
413,DK-Lva,dk.lille_valby.01,Lille Valby (Rimi),Denmark,Europe,Active,55.68330002,12.08329964,2004,CarboEurope-IP (EU-FP6),(null),(null),Cfb - Warm temperate fully humid with warm summer,-2493,Mixed Forests,Mixed Forests,Evergreen Needleleaf Forest,Evergreen Needleleaf Vegetation,Evergreen Needleleaf Trees,7
414,DK-Ris,dk.risbyholm.01,Risbyholm,Denmark,Europe,Active,55.53027778,12.09722222,2004,CarboEurope-IP (EU-FP6),(null),(null),Cfb - Warm temperate fully humid with warm summer,24,Croplands,Croplands,Grasses/Cereal Crops,Annual Grass Vegetation,Cereal crop,7
419,DK-Sor,dk.soro_hardwood.01,Soroe- LilleBogeskov,Denmark,Europe,Active,55.4858694,11.6446444,1996,IMECC (EU-FP6),CarboEurope-IP (EU-FP6),CarboEuroFlux (EU-FP5),Cfb - Warm temperate fully humid with warm summer,35,Deciduous Broadleaf Forest,Deciduous Broadleaf Forest,Deciduous Broadleaf Forest,Deciduous Broadleaf Vegetation,Deciduous Broadleaf Trees,32
420,DK-Sto,dk.store_ebberup.01,Store Ebberup,Denmark,Europe,Inactive,55.4833,11.6333,1998,CarboEurope,(null),(null),Cfb - Warm temperate fully humid with warm summer,39,Croplands,Croplands,Grasses/Cereal Crops,Annual Grass Vegetation,Cereal crop,6
423,DK-Ulb,dk.ulborg.01,Ulborg,Denmark,Europe,Active,56.29102778,8.428027778,2010,European Unaffiliated,(null),(null),Cfb - Warm temperate fully humid with warm summer,39,Mixed Forests,Mixed Forests,Evergreen Needleleaf Forest,Evergreen Needleleaf Vegetation,Evergreen Needleleaf Trees,40
435,ES-VDA,es.alinya.01,Vall dAlinya,Spain,Europe,Active,42.15218,1.4485,2002,CarboEurope-IP (EU-FP6),(null),(null),Cfb - Warm temperate fully humid with warm summer,1787,Savannas,Savannas,Savannah,Evergreen Broadleaf Vegetation,Shrub,7
437,ES-ES1,es.elsaler.01,El Saler,Spain,Europe,Active,39.34597222,-0.318805555,1999,CarboEurope-IP (EU-FP6),CarboEuroFlux (EU-FP5),Medeflu (EU-FP4),"Csa - Warm temperate with dry, hot summer",1,Permanent Wetlands,Evergreen Needleleaf Forest,Evergreen Needleleaf Forest,Evergreen Needleleaf Vegetation,Evergreen Needleleaf Trees,7
438,ES-ES2,es.elsaler_sueca.01,El Saler-Sueca,Spain,Europe,Active,39.27555556,-0.315277778,2004,CarboEurope-IP (EU-FP6),(null),(null),"Csa - Warm temperate with dry, hot summer",7,Croplands,Croplands,Grasses/Cereal Crops,Annual Grass Vegetation,Cereal crop,7
439,ES-LJu,es.ljuanes.01,Llano de los Juanes,Spain,Europe,Active,36.926594,-2.752115,2004,GHG-Europe (EU-FP7),(null),(null),"Csa - Warm temperate with dry, hot summer",1622,Closed Shrublands,Closed Shrublands,Shrubs,Annual Broadleaf Vegetation,Shrub,37
440,ES-LMa,es.lma.01,Las Majadas del Tietar,Spain,Europe,Active,39.9415,-5.773361111,2004,IMECC (EU-FP6),CarboEurope-IP (EU-FP6),(null),"Csa - Warm temperate with dry, hot summer",278,Closed Shrublands,Closed Shrublands,Shrubs,Annual Broadleaf Vegetation,Shrub,32
447,FI-Hyy,fi.hyytiala.01,Hyytiala,Finland,Europe,Active,61.8475,24.295,1996,GHG-Europe (EU-FP7),IMECC (EU-FP6),CarboEurope-IP (EU-FP6),Dfc - Snow fully humid cool summer,185,Evergreen Needleleaf Forest,Evergreen Needleleaf Forest,Evergreen Needleleaf Forest,Evergreen Needleleaf Vegetation,Evergreen Needleleaf Trees,37
448,FI-Jok,fi.jokionen.01,Jokioinen agricultural field,Finland,Europe,Inactive,60.8986,23.51345,2000,GHG-Europe (EU-FP7),(null),(null),Dfc - Snow fully humid cool summer,118,Croplands,Croplands,Broadleaf Crops,Annual Broadleaf Vegetation,Broadleaf crop,37
449,FI-Kaa,fi.kaamanen.01,Kaamanen wetland,Finland,Europe,Active,69.14069444,27.29502778,2000,CarboEurope-IP (EU-FP6),CarboEuroFlux (EU-FP5),(null),Dfc - Snow fully humid cool summer,159,Woody Savannas,Woody Savannas,Savannah,Annual Grass Vegetation,Grass,7
455,FI-Alk,fi.peatland.01,Alkkia Scots pine forest,Finland,Europe,Active,62.183367,22.784233,2002,European Unaffiliated,(null),(null),Dfc - Snow fully humid cool summer,165,Evergreen Needleleaf Forest,Evergreen Needleleaf Forest,Evergreen Needleleaf Forest,Evergreen Needleleaf Vegetation,Evergreen Needleleaf Trees,40
459,FI-Sod,fi.sodankyla.01,Sodankyla,Finland,Europe,Active,67.36186111,26.63783333,2000,CarboEurope-IP (EU-FP6),CarboEuroFlux (EU-FP5),(null),Dfc - Snow fully humid cool summer,188,Evergreen Needleleaf Forest,Evergreen Needleleaf Forest,Evergreen Needleleaf Forest,Evergreen Needleleaf Vegetation,Evergreen Needleleaf Trees,7
461,FI-Var,fi.varrio.01,Varrio,Finland,Europe,Active,67.7569,29.616,2012,European Unaffiliated,(null),(null),Dfc - Snow fully humid cool summer,308,Evergreen Needleleaf Forest,Evergreen Needleleaf Forest,Evergreen Needleleaf Forest,Evergreen Needleleaf Vegetation,Evergreen Needleleaf Trees,40
462,FR-Aur,fr.aurade.01,Aurade,France,Europe,Active,43.5496,1.106148,2004,GHG-Europe (EU-FP7),(null),(null),Cfb - Warm temperate fully humid with warm summer,258,Croplands,Croplands,Grasses/Cereal Crops,Annual Grass Vegetation,Cereal crop,37
463,FR-Avi,fr.avignon.01,Avignon,France,Europe,Active,43.91608333,4.878055556,2004,CarboEurope-IP (EU-FP6),(null),(null),"Csa - Warm temperate with dry, hot summer",33,Croplands,Croplands,Grasses/Cereal Crops,Annual Grass Vegetation,Cereal crop,7
464,FR-Bil,fr.bilos.01,Bilos  (after 6/20/2004),France,Europe,Active,44.49389,-0.95594,2004,European Unaffiliated,(null),(null),Cfb - Warm temperate fully humid with warm summer,39,Woody Savannas,Woody Savannas,Savannah,Evergreen Needleleaf Vegetation,Shrub,40
466,FR-LBr,fr.bordeaux.01,Le Bray (after 6/28/1998),France,Europe,Active,44.71711,-0.7693,1996,CarboEurope-IP (EU-FP6),CarboEuroFlux (EU-FP5),EuroFlux (EU-FP4),Cfb - Warm temperate fully humid with warm summer,62,Cropland/Natural Vegetation Mosaic,Woody Savannas,Savannah,Evergreen Broadleaf Vegetation,Shrub,7
470,FR-Cou,fr.couhins.01,Couhins,France,Europe,Active,44.75555556,-0.555555556,2004,European Unaffiliated,(null),(null),Cfb - Warm temperate fully humid with warm summer,14,Cropland/Natural Vegetation Mosaic,Croplands,Grasses/Cereal Crops,Annual Grass Vegetation,Cereal crop,40
472,FR-Fon,fr.fontainebleau.01,Fontainebleau,France,Europe,Active,48.476402,2.780142,2005,CarboEurope-IP (EU-FP6),(null),(null),Cfb - Warm temperate fully humid with warm summer,94,Deciduous Broadleaf Forest,Deciduous Broadleaf Forest,Deciduous Broadleaf Forest,Deciduous Broadleaf Vegetation,Deciduous Broadleaf Trees,7
474,FR-Gri,fr.grignon.01,Grignon  (after 6/5/2005),France,Europe,Active,48.84422,1.95191,2004,CarboEurope-IP (EU-FP6),(null),(null),Cfb - Warm temperate fully humid with warm summer,117,Croplands,Croplands,Grasses/Cereal Crops,Annual Grass Vegetation,Cereal crop,7
476,FR-Hes,fr.hesse.01,Hesse Forest- Sarrebourg,France,Europe,Active,48.67416,7.06556,1996,GHG-Europe (EU-FP7),CarboEurope-IP (EU-FP6),CarboEuroFlux (EU-FP5),Cfb - Warm temperate fully humid with warm summer,293,Deciduous Broadleaf Forest,Deciduous Broadleaf Forest,Deciduous Broadleaf Forest,Deciduous Broadleaf Vegetation,Deciduous Broadleaf Trees,37
477,FR-Lam,fr.lamasquere.01,Lamasquere,France,Europe,Active,43.4965,1.2379,2004,GHG-Europe (EU-FP7),(null),(null),Cfb - Warm temperate fully humid with warm summer,182,Croplands,Croplands,Grasses/Cereal Crops,Annual Grass Vegetation,Cereal crop,37
478,FR-Lq1,fr.laqueuille.01,Laqueuille,France,Europe,Active,45.64305556,2.735833333,2002,GHG-Europe (EU-FP7),IMECC (EU-FP6),CarboEurope-IP (EU-FP6),Cfb - Warm temperate fully humid with warm summer,1066,Croplands,Croplands,Grasses/Cereal Crops,Annual Grass Vegetation,Cereal crop,37
484,FR-Lus,fr.lusignan.01,Lusignan,France,Europe,Active,46.415568,0.119218,2005,CarboEurope-IP (EU-FP6),(null),(null),Cfb - Warm temperate fully humid with warm summer,63,Croplands,Croplands,Grasses/Cereal Crops,Annual Grass Vegetation,Cereal crop,7
487,FR-Pue,fr.puechabon.01,Puechabon,France,Europe,Active,43.74139,3.595833,2000,GHG-Europe (EU-FP7),IMECC (EU-FP6),CarboEurope-IP (EU-FP6),"Csa - Warm temperate with dry, hot summer",211,Mixed Forests,Mixed Forests,Evergreen Needleleaf Forest,Evergreen Needleleaf Vegetation,Evergreen Needleleaf Trees,37
498,GF-Guy,gf.guyaflux.01,Guyaflux,French Guiana,South America,Active,5.278771877,-52.92486191,2004,European Unaffiliated,(null),(null),"Af - Equatorial rainforest, fully humid",29,Evergreen Broadleaf Forest,Evergreen Broadleaf Forest,Evergreen Broadleaf Forest,Evergreen Broadleaf Vegetation,Evergreen Broadleaf Trees,40
502,GR-Mog,gr.mogostos_forest.01,Mogostos Forest,Greece,Europe,Active,38,22.61666667,1998,Medeflu (EU-FP4),(null),(null),"Csa - Warm temperate with dry, hot summer",766,Woody Savannas,Woody Savannas,Savannah,Evergreen Needleleaf Vegetation,Evergreen Broadleaf Trees,16
504,HU-Bug,hu.bugacputza.01,Bugacpuszta,Hungary,Europe,Active,46.69110107,19.60129929,2002,CarboEurope-IP (EU-FP6),Greengrass (EU-FP5),(null),Cfb - Warm temperate fully humid with warm summer,106,Croplands,Croplands,Grasses/Cereal Crops,Annual Grass Vegetation,Cereal crop,7
505,HU-He1,hu.hegyhatsal.01,Hegyhatsal,Hungary,Europe,Active,46.955947,16.652025,1997,GHG-Europe (EU-FP7),(null),(null),Cfb - Warm temperate fully humid with warm summer,243,Croplands,Croplands,Grasses/Cereal Crops,Annual Grass Vegetation,Cereal crop,37
506,HU-He2,hu.hegyhatsal_tower2.02,Hegyhatsal Tower 2,Hungary,Europe,Active,46.95515,16.652661,1999,European Unaffiliated,(null),(null),Cfb - Warm temperate fully humid with warm summer,243,Croplands,Croplands,Grasses/Cereal Crops,Annual Grass Vegetation,Cereal crop,40
507,HU-Mat,hu.matra.01,Matra,Hungary,Europe,Active,47.84690094,19.72599983,2004,CarboEurope-IP (EU-FP6),(null),(null),Cfb - Warm temperate fully humid with warm summer,315,Croplands,Croplands,Grasses/Cereal Crops,Annual Grass Vegetation,Cereal crop,7
511,ID-Buk,id.bukit_soeharto.01,Bukit Soeharto- East Kalimantan,Indonesia,Asia,Inactive,-0.833333333,117.05,1999,AsiaFlux,(null),(null),"Af - Equatorial rainforest, fully humid",1,Evergreen Broadleaf Forest,Evergreen Broadleaf Forest,Evergreen Broadleaf Forest,Evergreen Broadleaf Vegetation,Evergreen Broadleaf Trees,2
515,IE-Ca2,ie.carlow.01,Carlow1 Ireland,Ireland,Europe,Active,52.86758,-6.91117,2004,CarboEurope-IP (EU-FP6),Greengrass (EU-FP5),(null),Cfb - Warm temperate fully humid with warm summer,57,Grasslands,Grasslands,Grasses/Cereal Crops,Annual Grass Vegetation,Grass,7
516,IE-Dri,ie.dripsey.01,Dripsey,Ireland,Europe,Active,51.9866944,-8.75180556,2002,CarboEurope-IP (EU-FP6),(null),(null),Cfb - Warm temperate fully humid with warm summer,186,Grasslands,Grasslands,Grasses/Cereal Crops,Annual Grass Vegetation,Grass,7
517,IE-Kil,ie.killorglin.01,Killorglin,Ireland,Europe,Active,51.96836111,-9.900305556,2002,CarboEurope-IP (EU-FP6),(null),(null),Cfb - Warm temperate fully humid with warm summer,169,Woody Savannas,Woody Savannas,Savannah,Evergreen Broadleaf Vegetation,Grass,7
518,IE-Wex,ie.wexford.01,Wexford,Ireland,Europe,Active,52.29819444,-6.499777777,2004,European Unaffiliated,(null),(null),Cfb - Warm temperate fully humid with warm summer,68,Grasslands,Grasslands,Grasses/Cereal Crops,Annual Grass Vegetation,Grass,40
522,IL-Yat,il.yatir.01,Yatir,Israel,Asia,Active,31.34499931,35.05149841,2000,CarboEurope-IP (EU-FP6),CarboEuroFlux (EU-FP5),(null),BSh - Arid Steppe hot,664,Open Shrublands,Open Shrublands,Shrubs,Annual Broadleaf Vegetation,Shrub,7
526,IS-Gun,is.gunnarsholt.01,Gunnarsholt,Iceland,Europe,Active,63.83330154,-20.2166996,1996,EuroFlux (EU-FP4),(null),(null),Cfc - Warm temperate fully humid with cool summer,65,Permanent Wetlands,Barren or Sparsely Vegetated,Unvegetated,Non-Vegetated Land,Snow and Ice,11
528,IT-Amp,it.amplero.01,Amplero,Italy,Europe,Inactive,41.90409927,13.60515669,2002,CarboEurope-IP (EU-FP6),Carbomont (EU-FP5),Carbomont (EU-FP5),Cfa - Warm temperate fully humid with hot summer,991,Croplands,Croplands,Grasses/Cereal Crops,Annual Grass Vegetation,Cereal crop,7
530,IT-Ren,it.bolzano_renon.01,Renon/Ritten (Bolzano),Italy,Europe,Active,46.58686,11.43369,1998, CarboItaly (IT-FISR),GHG-Europe (EU-FP7),CarboEurope-IP (EU-FP6),Dfc - Snow fully humid cool summer,1794,Evergreen Needleleaf Forest,Evergreen Needleleaf Forest,Evergreen Needleleaf Forest,Evergreen Needleleaf Vegetation,Evergreen Needleleaf Trees,8
531,IT-Bon,it.bonis.01,Bonis,Italy,Europe,Active,39.47777778,16.53472222,2004, CarboItaly (IT-FISR),(null),(null),"Csa - Warm temperate with dry, hot summer",1203,Mixed Forests,Mixed Forests,Evergreen Needleleaf Forest,Evergreen Needleleaf Vegetation,Evergreen Needleleaf Trees,8
532,IT-BCi,it.borgo_cioffi.01,Borgo Cioffi,Italy,Europe,Active,40.52375,14.95744444,2004, CarboItaly (IT-FISR),CarboEurope-IP (EU-FP6),(null),"Csa - Warm temperate with dry, hot summer",13,Croplands,Croplands,Grasses/Cereal Crops,Annual Grass Vegetation,Cereal crop,8
533,IT-PT1,it.canarazzo.01,Zerbolo-Parco Ticino- Canarazzo,Italy,Europe,Active,45.20087222,9.061038889,1998,CarboEurope-IP (EU-FP6),CarboEuroFlux (EU-FP5),(null),Cfa - Warm temperate fully humid with hot summer,70,Croplands,Croplands,Grasses/Cereal Crops,Annual Grass Vegetation,Cereal crop,7
534,IT-Cpz,it.castelporziano.01,Castelporziano,Italy,Europe,Active,41.7052493,12.3761058,1997, CarboItaly (IT-FISR),CarboEurope-IP (EU-FP6),CarboEuroFlux (EU-FP5),"Csa - Warm temperate with dry, hot summer",9,Evergreen Needleleaf Forest,Evergreen Needleleaf Forest,Evergreen Needleleaf Forest,Evergreen Needleleaf Vegetation,Evergreen Needleleaf Trees,8
535,IT-Col,it.collelongo.01,Collelongo- Selva Piana,Italy,Europe,Active,41.84936,13.58814,1996, CarboItaly (IT-FISR),GHG-Europe (EU-FP7),CarboEurope-IP (EU-FP6),Cfa - Warm temperate fully humid with hot summer,1645,Deciduous Broadleaf Forest,Deciduous Broadleaf Forest,Deciduous Broadleaf Forest,Deciduous Broadleaf Vegetation,Deciduous Broadleaf Trees,8
1078,US-Ton,us.tonzi.01,Tonzi Ranch,United States,North America,Active,38.4316,-120.966,2001,AmeriFlux,(null),(null),"Csa - Warm temperate with dry, hot summer",170,Woody Savannas,Woody Savannas,Savannah,Annual Grass Vegetation,Shrub,1
537,IT-LMa,it.lamandria.01,La Mandria,Italy,Europe,Active,45.15258,7.58259,2001, CarboItaly (IT-FISR),CarboEurope-IP (EU-FP6),(null),Cfb - Warm temperate fully humid with warm summer,2857,Mixed Forests,Mixed Forests,Deciduous Broadleaf Forest,Deciduous Broadleaf Vegetation,Deciduous Broadleaf Trees,8
539,IT-Lav,it.lavarone.01,Lavarone (after 3/2002),Italy,Europe,Active,45.9562,11.28132,2000, CarboItaly (IT-FISR),GHG-Europe (EU-FP7),CarboEurope-IP (EU-FP6),Cfb - Warm temperate fully humid with warm summer,1305,Evergreen Needleleaf Forest,Evergreen Needleleaf Forest,Evergreen Needleleaf Forest,Evergreen Needleleaf Vegetation,Evergreen Needleleaf Trees,8
541,IT-Lec,it.lecceto.01,Lecceto,Italy,Europe,Inactive,43.30359,11.26975,2005, CarboItaly (IT-FISR),CarboEurope-IP (EU-FP6),(null),Cfa - Warm temperate fully humid with hot summer,260,Mixed Forests,Mixed Forests,Evergreen Broadleaf Forest,Evergreen Broadleaf Vegetation,Evergreen Broadleaf Trees,8
542,IT-Mal,it.malga_arpaco.01,Malga Arpaco,Italy,Europe,Active,46.11402,11.70334,2002,CarboEurope-IP (EU-FP6),Greengrass (EU-FP5),(null),ET - Polar tundra,1610,Mixed Forests,Mixed Forests,Deciduous Broadleaf Forest,Deciduous Broadleaf Vegetation,Deciduous Broadleaf Trees,7
543,IT-MBo,it.montebondone.01,Monte Bondone,Italy,Europe,Active,46.014678,11.045831,2002, CarboItaly (IT-FISR),GHG-Europe (EU-FP7),CarboEurope-IP (EU-FP6),Dfb - Snow fully humid warm summer,1547,Grasslands,Grasslands,Grasses/Cereal Crops,Annual Grass Vegetation,Grass,8
544,IT-Neg,it.negrisia.01,Negrisia,Italy,Europe,Active,45.74756389,12.44673056,2005, CarboItaly (IT-FISR),(null),(null),Cfb - Warm temperate fully humid with warm summer,11,Croplands,Croplands,Broadleaf Crops,Annual Broadleaf Vegetation,Broadleaf crop,8
545,IT-Non,it.nonantola.01,Nonantola,Italy,Europe,Active,44.69019,11.09109,2000, CarboItaly (IT-FISR),CarboEurope-IP (EU-FP6),CarboEuroFlux (EU-FP5),Cfa - Warm temperate fully humid with hot summer,14,Cropland/Natural Vegetation Mosaic,Woody Savannas,Savannah,Deciduous Broadleaf Vegetation,Deciduous Broadleaf Trees,8
547,IT-Pia,it.pianosa.01,Island of Pianosa,Italy,Europe,Inactive,42.5838694,10.0784,2002,CarboEurope-IP (EU-FP6),(null),(null),"Csa - Warm temperate with dry, hot summer",13,Croplands,Croplands,Grasses/Cereal Crops,Annual Grass Vegetation,Cereal crop,7
549,IT-Ro1,it.rocca.01,Roccarespampani1,Italy,Europe,Active,42.40812,11.93001,2000, CarboItaly (IT-FISR),CarboEurope-IP (EU-FP6),CarboEuroFlux (EU-FP5),"Csa - Warm temperate with dry, hot summer",153,Cropland/Natural Vegetation Mosaic,Mixed Forests,Deciduous Broadleaf Forest,Deciduous Broadleaf Vegetation,Deciduous Broadleaf Trees,8
550,IT-Ro2,it.rocca.02,Roccarespampani2,Italy,Europe,Active,42.39026,11.92093,2002, CarboItaly (IT-FISR),GHG-Europe (EU-FP7),CarboEurope-IP (EU-FP6),"Csa - Warm temperate with dry, hot summer",165,Cropland/Natural Vegetation Mosaic,Croplands,Grasses/Cereal Crops,Annual Grass Vegetation,Cereal crop,8
552,IT-SRo,it.san_rossore.01,San Rossore,Italy,Europe,Active,43.72786111,10.28444444,1999,CarboEurope-IP (EU-FP6),CarboEuroFlux (EU-FP5),Medeflu (EU-FP4),"Csa - Warm temperate with dry, hot summer",2,Water,Water,Water,Water,Water,7
555,IT-Tol,it.tolfa.01,Tolfa,Italy,Europe,Active,42.18967,11.92155,2005,CarboEurope-IP (EU-FP6),(null),(null),"Csa - Warm temperate with dry, hot summer",415,Mixed Forests,Mixed Forests,Deciduous Broadleaf Forest,Deciduous Broadleaf Vegetation,Deciduous Broadleaf Trees,7
556,JP-Aka,jp.akanuma.01,Akanuma- Kushiro Mire,Japan,Asia,Inactive,43.11666667,144.3666667,1998,AsiaFlux,(null),(null),Dfb - Snow fully humid warm summer,3,Grasslands,Grasslands,Grasses/Cereal Crops,Annual Grass Vegetation,Grass,2
557,JP-App,jp.appi_forest.01,Appi Forest Meteorology Research Site Japan,Japan,Asia,Active,40,141.5666667,1999,JapanFlux,AsiaFlux,(null),Cfb - Warm temperate fully humid with warm summer,996,Deciduous Broadleaf Forest,Deciduous Broadleaf Forest,Deciduous Broadleaf Forest,Deciduous Broadleaf Vegetation,Deciduous Broadleaf Trees,14
558,JP-Fuj,jp.fujiyoshida.01,Fujiyoshida Forest Met. Research Site,Japan,Asia,Active,35.45136667,138.7652667,1999,JapanFlux,AsiaFlux,(null),Dfb - Snow fully humid warm summer,1043,Mixed Forests,Mixed Forests,Deciduous Broadleaf Forest,Deciduous Broadleaf Vegetation,Deciduous Broadleaf Trees,14
559,JP-Hac,jp.hachihama.01,Hachihama Observatory (Ohtaki),Japan,Asia,Active,34.53333333,133.9333333,1998,AsiaFlux,(null),(null),Cfa - Warm temperate fully humid with hot summer,87,Cropland/Natural Vegetation Mosaic,Woody Savannas,Savannah,Deciduous Broadleaf Vegetation,Deciduous Broadleaf Trees,2
560,JP-Hit,jp.hitsuijigaoka.01,Sapporo Forest Meteorology Research Site,Japan,Asia,Active,42.98683583,141.3852878,1999,JapanFlux,AsiaFlux,(null),Dfb - Snow fully humid warm summer,175,Mixed Forests,Mixed Forests,Evergreen Needleleaf Forest,Evergreen Needleleaf Vegetation,Evergreen Needleleaf Trees,14
561,JP-Hok,jp.hokkaido.01,IGBP Tower Site- Hokkaido,Japan,Asia,Active,42.699,141.571,1998,AsiaFlux,(null),(null),Dfb - Snow fully humid warm summer,3,Water,Water,Water,Water,Water,2
563,JP-Kah,jp.kahoku.01,Kahoku experimental watershed,Japan,Asia,Active,33.133695,130.71187,1999,JapanFlux,AsiaFlux,(null),Cfa - Warm temperate fully humid with hot summer,179,Mixed Forests,Mixed Forests,Evergreen Broadleaf Forest,Evergreen Broadleaf Vegetation,Evergreen Broadleaf Trees,14
564,JP-Ksa,jp.kasumigaura.01,Lotus field on Lake Kasumigaura,Japan,Asia,Inactive,36.06666667,140.25,1996,AsiaFlux,(null),(null),Cfa - Warm temperate fully humid with hot summer,2,Water,Water,Water,Water,Water,2
565,JP-Kwa,jp.kawagoe.01,Kawagoe Forest Met. Research Site,Japan,Asia,Inactive,35.15,139.0833333,1997,JapanFlux,AsiaFlux,(null),Cfa - Warm temperate fully humid with hot summer,219,Urban and Built-Up,Urban and Built-Up,Urban,Urban,Urban and built up,14
567,JP-Onn,jp.onnenai.01,Onnenai- Kushiro Mire,Japan,Asia,Inactive,43.11666667,144.3333333,2001,AsiaFlux,(null),(null),Dfb - Snow fully humid warm summer,8,Cropland/Natural Vegetation Mosaic,Deciduous Needleleaf Forest,Deciduous Needleleaf Forest,Deciduous Needleleaf Vegetation,Deciduous Needleleaf Trees,2
568,JP-Shi,jp.shionomisaki.01,Shionomisaki Laboratory,Japan,Asia,Active,33.44277778,135.7594444,1999,AsiaFlux,(null),(null),Cfa - Warm temperate fully humid with hot summer,-3680,Woody Savannas,Woody Savannas,Savannah,Evergreen Needleleaf Vegetation,Evergreen Needleleaf Trees,2
569,JP-Tak,jp.takayama.01,Takayama,Japan,Asia,Active,36.14616667,137.4231111,1993,JapanFlux,AsiaFlux,(null),Dfb - Snow fully humid warm summer,1355,Mixed Forests,Mixed Forests,Deciduous Broadleaf Forest,Deciduous Broadleaf Vegetation,Deciduous Broadleaf Trees,14
574,JP-Tom,jp.tomakomai.01,Tomakomai National Forest,Japan,Asia,Inactive,42.73697222,141.5186389,2000,JapanFlux,AsiaFlux,(null),Dfb - Snow fully humid warm summer,115,Cropland/Natural Vegetation Mosaic,Savannas,Savannah,Evergreen Needleleaf Vegetation,Grass,14
575,JP-Tsu,jp.tsukuba.02,Grassland at NIAES,Japan,Asia,Inactive,36,140.0166667,(null),JapanFlux,AsiaFlux,(null),Cfa - Warm temperate fully humid with hot summer,13,Croplands,Croplands,Grasses/Cereal Crops,Annual Grass Vegetation,Cereal crop,14
576,JP-Yaw,jp.yawara.01,Rice- Yawara-Ibaraki Prefecture,Japan,Asia,Active,36,140.0166667,1999,AsiaFlux,(null),(null),Cfa - Warm temperate fully humid with hot summer,13,Croplands,Croplands,Grasses/Cereal Crops,Annual Grass Vegetation,Cereal crop,2
581,KR-Har,kr.hari.01,Hari Rural Rice Paddy,South Korea,Asia,Inactive,37.716667,126.3,2001,KoFlux,AsiaFlux,(null),Dwa - Snow dry winter hot summer,1,Water,Water,Water,Water,Water,15
584,KR-Kw1,kr.kwangnung_coniferous.01,Gwangneung Coniferous Forest,South Korea,Asia,Active,37.74860664,127.162525,1998,KoFlux,AsiaFlux,(null),Dwa - Snow dry winter hot summer,154,Mixed Forests,Mixed Forests,Deciduous Broadleaf Forest,Deciduous Broadleaf Vegetation,Deciduous Broadleaf Trees,15
588,KR-Suw,kr.suwon.01,Suwon Suburban Rice Paddy,South Korea,Asia,Active,37.26946667,126.9402167,2002,KoFlux,(null),(null),Cwa - Warm temperate with dry winter and hot summer,55,Cropland/Natural Vegetation Mosaic,Woody Savannas,Savannah,Annual Grass Vegetation,Grass,15
589,KZ-AL1,kz.al1.01,Shortandy AL1,Kazakhstan,Asia,Intermittent,51.51361111,71.46277778,2006,Unaffiliated,(null),(null),Dfb - Snow fully humid warm summer,357,Grasslands,Grasslands,Grasses/Cereal Crops,Annual Grass Vegetation,Grass,19
590,KZ-AL2,kz.al2.01,Shortandy AL2,Kazakhstan,Asia,Intermittent,51.48361111,71.10472222,2006,Unaffiliated,(null),(null),Dfb - Snow fully humid warm summer,404,Croplands,Croplands,Grasses/Cereal Crops,Annual Grass Vegetation,Cereal crop,19
591,KZ-AL3,kz.al3.01,Shortandy AL3,Kazakhstan,Asia,Intermittent,51.58722222,71.00083333,2006,Unaffiliated,(null),(null),Dfb - Snow fully humid warm summer,398,Grasslands,Grasslands,Grasses/Cereal Crops,Annual Grass Vegetation,Grass,19
592,KZ-AL4,kz.al4.01,Shortandy AL4,Kazakhstan,Asia,Intermittent,51.68147222,71.14369444,2006,Unaffiliated,(null),(null),BSk - Arid Steppe cold,386,Grasslands,Grasslands,Grasses/Cereal Crops,Annual Grass Vegetation,Grass,19
594,KZ-CW1,kz.cw1.01,Shortandy CW1,Kazakhstan,Asia,Intermittent,51.5275,71.48277778,2006,Unaffiliated,(null),(null),BSk - Arid Steppe cold,360,Grasslands,Grasslands,Grasses/Cereal Crops,Annual Grass Vegetation,Grass,19
595,KZ-CW2,kz.cw2.01,Shortandy CW2,Kazakhstan,Asia,Intermittent,51.48083333,71.114,2006,Unaffiliated,(null),(null),Dfb - Snow fully humid warm summer,397,Grasslands,Grasslands,Grasses/Cereal Crops,Annual Grass Vegetation,Grass,19
596,KZ-CW3,kz.cw3.01,Shortandy CW3,Kazakhstan,Asia,Intermittent,51.58888889,71.00027778,2006,Unaffiliated,(null),(null),Dfb - Snow fully humid warm summer,398,Grasslands,Grasslands,Grasses/Cereal Crops,Annual Grass Vegetation,Grass,19
597,KZ-CW4,kz.cw4.01,Shortandy CW4,Kazakhstan,Asia,Intermittent,51.68277778,71.14772222,2006,Unaffiliated,(null),(null),BSk - Arid Steppe cold,387,Grasslands,Grasslands,Grasses/Cereal Crops,Annual Grass Vegetation,Grass,19
598,KZ-VL1,kz.vl1.01,Shortandy VL1,Kazakhstan,Asia,Intermittent,51.51,71.45583333,2006,Unaffiliated,(null),(null),Dfb - Snow fully humid warm summer,356,Grasslands,Grasslands,Grasses/Cereal Crops,Annual Grass Vegetation,Grass,19
599,KZ-VL2,kz.vl2.01,Shortandy VL2,Kazakhstan,Asia,Intermittent,51.4775,71.10361111,2006,Unaffiliated,(null),(null),Dfb - Snow fully humid warm summer,391,Grasslands,Grasslands,Grasses/Cereal Crops,Annual Grass Vegetation,Grass,19
600,KZ-VL3,kz.vl3.01,Shortandy VL3,Kazakhstan,Asia,Intermittent,51.62333333,70.96944444,2006,Unaffiliated,(null),(null),Dfb - Snow fully humid warm summer,378,Grasslands,Grasslands,Grasses/Cereal Crops,Annual Grass Vegetation,Grass,19
601,KZ-VL4,kz.vl4.01,Shortandy VL4,Kazakhstan,Asia,Intermittent,51.67555556,71.15444444,2006,Unaffiliated,(null),(null),BSk - Arid Steppe cold,387,Grasslands,Grasslands,Grasses/Cereal Crops,Annual Grass Vegetation,Grass,19
602,KZ-VL5,kz.vlbr.01,Shortandy VLBR,Kazakhstan,Asia,Inactive,51.57583333,71.26805556,1999,Unaffiliated,(null),(null),Dfb - Snow fully humid warm summer,423,Croplands,Croplands,Grasses/Cereal Crops,Annual Grass Vegetation,Cereal crop,19
603,KZ-Wht,kz.wht.01,Shortandy Wht,Kazakhstan,Asia,Intermittent,51.57361111,71.25972222,2006,Unaffiliated,(null),(null),Dfb - Snow fully humid warm summer,427,Grasslands,Grasslands,Grasses/Cereal Crops,Annual Grass Vegetation,Grass,19
613,MN-Arv,mn.arvaikheer.01,Arvaikheer,Mongolia,Asia,Inactive,46.23381667,102.8251167,1998,AsiaFlux,(null),(null),BSk - Arid Steppe cold,1728,Grasslands,Grasslands,Grasses/Cereal Crops,Annual Grass Vegetation,Grass,2
616,MN-Inn,mn.inner_mongolia.01,Inner Mongolia,China,Asia,Active,43.5,117.45,2003,ChinaFlux,(null),(null),Dwb - Snow dry winter warm summer,1720,Deciduous Broadleaf Forest,Deciduous Broadleaf Forest,Deciduous Broadleaf Forest,Deciduous Broadleaf Vegetation,Deciduous Broadleaf Trees,10
637,MN-Mag,mn.mongolia.01,MAGIM,China,Asia,Intermittent,43.55472222,116.6780556,2004,Unaffiliated,(null),(null),Dwb - Snow dry winter warm summer,1247,Grasslands,Grasslands,Grasses/Cereal Crops,Annual Grass Vegetation,Grass,19
644,MX-Cha,mx.chamela.01,Chamela Biological Station,Mexico,North America,Active,19.50928056,-105.040175,2005,Unaffiliated,(null),(null),As - Equatorial savannah with dry summer,58,Deciduous Broadleaf Forest,Deciduous Broadleaf Forest,Deciduous Broadleaf Forest,Deciduous Broadleaf Vegetation,Deciduous Broadleaf Trees,19
646,MX-Lpa,mx.lapaz.01,La Paz,Mexico,North America,Active,24.12925,-110.4380278,2000,AmeriFlux,(null),(null),BWh - Arid desert hot,21,Open Shrublands,Open Shrublands,Shrubs,Annual Broadleaf Vegetation,Shrub,1
661,NL-Ca1,nl.cabauw.01,Cabauw,Netherlands,Europe,Active,51.971,4.927,2000,GHG-Europe (EU-FP7),CarboEurope-IP (EU-FP6),(null),Cfb - Warm temperate fully humid with warm summer,1,Cropland/Natural Vegetation Mosaic,Croplands,Grasses/Cereal Crops,Annual Grass Vegetation,Cereal crop,37
665,NL-Hor,nl.horster.01,Horstermeer,Netherlands,Europe,Active,52.24035,5.071301,2003,IMECC (EU-FP6),CarboEurope-IP (EU-FP6),(null),Cfb - Warm temperate fully humid with warm summer,1,Mixed Forests,Mixed Forests,Deciduous Broadleaf Forest,Deciduous Broadleaf Vegetation,Deciduous Broadleaf Trees,32
666,NL-Lel,nl.lelystad.01,Lelystad,Netherlands,Europe,Active,52.52423818,5.551615935,2004,European Unaffiliated,(null),(null),Cfb - Warm temperate fully humid with warm summer,-4,Croplands,Croplands,Broadleaf Crops,Annual Broadleaf Vegetation,Broadleaf crop,40
667,NL-Loo,nl.loobos.01,Loobos,Netherlands,Europe,Active,52.166581,5.743556,1996,GHG-Europe (EU-FP7),IMECC (EU-FP6),CarboEurope-IP (EU-FP6),Cfb - Warm temperate fully humid with warm summer,25,Evergreen Needleleaf Forest,Evergreen Needleleaf Forest,Evergreen Needleleaf Forest,Evergreen Needleleaf Vegetation,Evergreen Needleleaf Trees,37
670,NZ-Pur,nz.purerua.01,Purerua,New Zealand,Australia/Oceania,Inactive,-35.15,174.0333,1992,Unaffiliated,(null),(null),Cfb - Warm temperate fully humid with warm summer,34,Evergreen Broadleaf Forest,Evergreen Broadleaf Forest,Evergreen Broadleaf Forest,Evergreen Broadleaf Vegetation,Evergreen Broadleaf Trees,19
671,PA-SPs,pa.sardinilla_pasture.01,Sardinilla Pasture,Panama,South America,Inactive,9.313779833,-79.63142983,2007,Agroforestry Panama,(null),(null),Am - Equatorial monsoon,76,Cropland/Natural Vegetation Mosaic,Woody Savannas,Savannah,Annual Grass Vegetation,Grass,34
672,PA-SPn,pa.sardinilla_plantation.01,Sardinilla Plantation,Panama,South America,Inactive,9.318139833,-79.6346,2007,Agroforestry Panama,(null),(null),Am - Equatorial monsoon,80,Cropland/Natural Vegetation Mosaic,Croplands,Broadleaf Crops,Annual Broadleaf Vegetation,Broadleaf crop,34
678,PL-Bre,pl.brenna.01,Brenna,Poland,Europe,Active,49.66667,18.93333,2002,Carbomont (EU-FP5),(null),(null),Dfb - Snow fully humid warm summer,706,Mixed Forests,Mixed Forests,Deciduous Broadleaf Forest,Deciduous Broadleaf Vegetation,Deciduous Broadleaf Trees,9
679,PL-Pol,pl.polana.01,Polana,Slovakia,Europe,Active,48.63333333,19.53333333,2004,European Unaffiliated,(null),(null),Dfb - Snow fully humid warm summer,800,Mixed Forests,Mixed Forests,Deciduous Broadleaf Forest,Deciduous Broadleaf Vegetation,Deciduous Broadleaf Trees,40
680,PL-wet,pl.polwet.01,Polwet,Poland,Europe,Active,52.7621994,16.30940056,2004,GHG-Europe (EU-FP7),CarboEurope-IP (EU-FP6),(null),Cfb - Warm temperate fully humid with warm summer,55,Mixed Forests,Mixed Forests,Evergreen Needleleaf Forest,Evergreen Needleleaf Vegetation,Evergreen Needleleaf Trees,37
684,PT-Esp,pt.espirra.01,Espirra,Portugal,Europe,Active,38.63940048,-8.601799965,2002,CarboEurope-IP (EU-FP6),CarboEuroFlux (EU-FP5),(null),"Csa - Warm temperate with dry, hot summer",90,Woody Savannas,Woody Savannas,Savannah,Annual Grass Vegetation,Grass,7
685,PT-Mi1,pt.evora.01,Mitra (Evora),Portugal,Europe,Active,38.54063889,-8.000055556,1999,CarboEurope-IP (EU-FP6),CarboEuroFlux (EU-FP5),(null),"Csa - Warm temperate with dry, hot summer",230,Savannas,Savannas,Savannah,Annual Grass Vegetation,Grass,7
687,PT-Mi3,pt.mitra2.01,Mitra II (Evora),Portugal,Europe,Active,38.54063889,-8.000055556,2005,CarboEurope,(null),(null),"Csa - Warm temperate with dry, hot summer",230,Savannas,Savannas,Savannah,Annual Grass Vegetation,Grass,6
688,PT-Mi2,pt.mitra4.01,Mitra IV Tojal,Portugal,Europe,Active,38.47650146,-8.024550438,2004,CarboEurope-IP (EU-FP6),(null),(null),"Csa - Warm temperate with dry, hot summer",193,Savannas,Savannas,Savannah,Annual Grass Vegetation,Grass,7
692,RU-Che,ru.cherskii.01,Cherskii,Russia,Asia,Active,68.61304,161.34143,2002, TCOS Siberia  (EU-FP5), TCOS Siberia  (EU-FP5), TCOS Siberia  (EU-FP5),Dfc - Snow fully humid cool summer,3,Open Shrublands,Open Shrublands,Shrubs,Annual Broadleaf Vegetation,Shrub,20
693,RU-Cok,ru.chokurdakh.01,Chokurdakh / Kytalyk,Russia,Asia,Inactive,70.82913889,147.4942778,2003, TCOS Siberia  (EU-FP5), TCOS Siberia  (EU-FP5), TCOS Siberia  (EU-FP5),Dfc - Snow fully humid cool summer,16,Open Shrublands,Open Shrublands,Shrubs,Annual Broadleaf Vegetation,Shrub,20
694,RU-Cuk,ru.chukotka.01,Chukotka,Russia,Asia,Active,65.59483333,171.0525,2001, TCOS Siberia  (EU-FP5),(null),(null),Dfc - Snow fully humid cool summer,183,Open Shrublands,Open Shrublands,Shrubs,Annual Broadleaf Vegetation,Shrub,20
709,RU-Fyo,ru.ffedorovskoje_new.01,Fedorovskoje-drained spruce stand,Russia,Asia,Active,56.4615278,32.9220833,1998, TCOS Siberia  (EU-FP5),(null),(null),Dfb - Snow fully humid warm summer,273,Mixed Forests,Mixed Forests,Evergreen Needleleaf Forest,Evergreen Needleleaf Vegetation,Evergreen Needleleaf Trees,20
713,RU-Sam,ru.samoylov.01,Samoylov Island- Lena Delta,Russia,Asia,Intermittent,72.3738,126.4958,2002,European Unaffiliated,Carbomont (EU-FP5),(null),Dfd - Snow fully humid extremely continental,16,Woody Savannas,Woody Savannas,Savannah,Annual Grass Vegetation,Shrub,40
714,RU-Tuv,ru.tuva.01,Tuva,Russia,Asia,Inactive,50.15,94.45,2004,JapanFlux,AsiaFlux,(null),Dfb - Snow fully humid warm summer,948,Grasslands,Grasslands,Grasses/Cereal Crops,Annual Grass Vegetation,Grass,14
715,RU-Ha1,ru.ubsu_nur_hak1.01,Ubs Nur- Hakasija - grassland,Russia,Asia,Active,54.72517,90.00215,2002, TCOS Siberia  (EU-FP5), TCOS Siberia  (EU-FP5), TCOS Siberia  (EU-FP5),Dfc - Snow fully humid cool summer,449,Grasslands,Grasslands,Grasses/Cereal Crops,Annual Grass Vegetation,Grass,20
716,RU-Ha2,ru.ubsu_nur_hak2.01,Ubs Nur- Hakasija - recovering grassland,Russia,Asia,Active,54.77301,89.95664,2002, TCOS Siberia  (EU-FP5), TCOS Siberia  (EU-FP5), TCOS Siberia  (EU-FP5),Dfc - Snow fully humid cool summer,407,Woody Savannas,Woody Savannas,Savannah,Annual Grass Vegetation,Grass,20
717,RU-Ha3,ru.ubsu_nur_hak3.01,Ubs Nur- Hakasija - Site 3,Russia,Asia,Active,54.70455,89.07785,2004, TCOS Siberia  (EU-FP5), TCOS Siberia  (EU-FP5), TCOS Siberia  (EU-FP5),Dfc - Snow fully humid cool summer,437,Mixed Forests,Mixed Forests,Deciduous Broadleaf Forest,Deciduous Broadleaf Vegetation,Deciduous Broadleaf Trees,20
719,RU-Ylr,ru.yakutsk_larch.01,Yakutsk-Larch,Russia,Asia,Active,62.255,129.6189,1996,European Unaffiliated,JapanFlux,(null),Dfd - Snow fully humid extremely continental,214,Deciduous Needleleaf Forest,Deciduous Needleleaf Forest,Deciduous Needleleaf Forest,Deciduous Needleleaf Vegetation,Deciduous Needleleaf Trees,40
720,RU-Ypn,ru.yakutsk_pine.01,Yakutsk-Pine,Russia,Asia,Active,62.2414,129.6506,1998,European Unaffiliated,JapanFlux,(null),Dfd - Snow fully humid extremely continental,208,Deciduous Needleleaf Forest,Deciduous Needleleaf Forest,Deciduous Needleleaf Forest,Deciduous Needleleaf Vegetation,Deciduous Needleleaf Trees,40
721,RU-Zot,ru.zotino.01,Zotino,Russia,Asia,Active,60.80080032,89.35079956,2002, TCOS Siberia  (EU-FP5), TCOS Siberia  (EU-FP5), TCOS Siberia  (EU-FP5),Dfc - Snow fully humid cool summer,124,Woody Savannas,Woody Savannas,Savannah,Evergreen Needleleaf Vegetation,Evergreen Needleleaf Trees,20
724,SD-Dem,sd.demokeya.01,Demokeya,Sudan,Africa,Inactive,13.2829,30.4783,2002,CarboAfrica (EU-FP6),(null),(null),BWh - Arid desert hot,608,Grasslands,Grasslands,Grasses/Cereal Crops,Annual Grass Vegetation,Grass,4
725,SE-Asa,se.asa.01,Asa,Sweden,Europe,Inactive,57.17226111,14.8001,2004,European Unaffiliated,(null),(null),Cfb - Warm temperate fully humid with warm summer,205,Evergreen Needleleaf Forest,Evergreen Needleleaf Forest,Evergreen Needleleaf Forest,Evergreen Needleleaf Vegetation,Evergreen Needleleaf Trees,40
726,SE-As2,se.asa_nybygget.01,Asa Nybygget,Sweden,Europe,Active,57.1495,14.738663,2005,Unaffiliated,(null),(null),Cfb - Warm temperate fully humid with warm summer,260,Evergreen Needleleaf Forest,Evergreen Needleleaf Forest,Evergreen Needleleaf Forest,Evergreen Needleleaf Vegetation,Evergreen Needleleaf Trees,19
727,SE-Deg,se.degero.01,Degero Stormyr (NECC),Sweden,Europe,Active,64.18197222,19.55669444,2001,CarboEurope-IP (EU-FP6),(null),(null),Dfc - Snow fully humid cool summer,242,Evergreen Needleleaf Forest,Evergreen Needleleaf Forest,Evergreen Needleleaf Forest,Evergreen Needleleaf Vegetation,Evergreen Needleleaf Trees,7
728,SE-Fla,se.flakaliden.01,Flakaliden,Sweden,Europe,Active,64.11277777,19.45694444,1996,CarboEuroFlux (EU-FP5),EuroFlux (EU-FP4),(null),Dfc - Snow fully humid cool summer,307,Evergreen Needleleaf Forest,Evergreen Needleleaf Forest,Evergreen Needleleaf Forest,Evergreen Needleleaf Vegetation,Evergreen Needleleaf Trees,5
729,SE-Kno,se.knottasen.01,Knottasen,Sweden,Europe,Active,60.99825,16.21727778,2004,CarboEurope-IP (EU-FP6),(null),(null),Dfc - Snow fully humid cool summer,285,Evergreen Needleleaf Forest,Evergreen Needleleaf Forest,Evergreen Needleleaf Forest,Evergreen Needleleaf Vegetation,Evergreen Needleleaf Trees,7
730,SE-Nor,se.norunda.01,Norunda,Sweden,Europe,Active,60.08649722,17.47950278,1996,CarboEurope-IP (EU-FP6),CarboEuroFlux (EU-FP5),EuroFlux (EU-FP4),Dfb - Snow fully humid warm summer,28,Evergreen Needleleaf Forest,Evergreen Needleleaf Forest,Evergreen Needleleaf Forest,Evergreen Needleleaf Vegetation,Evergreen Needleleaf Trees,7
732,SE-Sk2,se.skyttorp.01,Skyttorp,Sweden,Europe,Active,60.12966667,17.84005556,2004,CarboEurope-IP (EU-FP6),(null),(null),Dfb - Snow fully humid warm summer,58,Evergreen Needleleaf Forest,Evergreen Needleleaf Forest,Evergreen Needleleaf Forest,Evergreen Needleleaf Vegetation,Evergreen Needleleaf Trees,7
733,SE-Sk1,se.skyttorp_yng.01,Skyttorp1 young,Sweden,Europe,Active,60.125,17.91805556,2004,CarboEurope-IP (EU-FP6),(null),(null),Dfb - Snow fully humid warm summer,42,Evergreen Needleleaf Forest,Evergreen Needleleaf Forest,Evergreen Needleleaf Forest,Evergreen Needleleaf Vegetation,Evergreen Needleleaf Trees,7
734,SE-St2,se.stordalen.01,Stordalen Grassland (Mire),Sweden,Europe,Active,68.35424444,19.04714444,2004,European Unaffiliated,(null),(null),ET - Polar tundra,347,Woody Savannas,Woody Savannas,Savannah,Evergreen Needleleaf Vegetation,Grass,40
735,SE-St1,se.stordalen_birch.01,Stordalen  Forest- Mountain Birch,Sweden,Europe,Active,68.3541488,19.050333,2004,European Unaffiliated,(null),(null),ET - Polar tundra,347,Closed Shrublands,Closed Shrublands,Shrubs,Evergreen Needleleaf Vegetation,Shrub,40
736,SK-Pol,sk.polana.01,Polana 2,Slovakia,Europe,Active,48.63333333,19.46666667,2002,Carbomont (EU-FP5),(null),(null),Dfb - Snow fully humid warm summer,1222,Mixed Forests,Mixed Forests,Evergreen Needleleaf Forest,Evergreen Needleleaf Vegetation,Evergreen Needleleaf Trees,9
745,TH-Mae,th.maeklong.01,Maeklong- Kanchanabri,Thailand,Asia,Active,14.575,98.85833333,2001,AsiaFlux,(null),(null),Am - Equatorial monsoon,214,Evergreen Broadleaf Forest,Evergreen Broadleaf Forest,Evergreen Broadleaf Forest,Evergreen Broadleaf Vegetation,Evergreen Broadleaf Trees,2
746,TH-Mix,th.mixedvegetation.01,Mixed Vegetation Site,Thailand,Asia,Active,16.93986111,99.42986111,2002,KoFlux,(null),(null),Aw - Equatorial savannah with dry winter,105,Woody Savannas,Woody Savannas,Savannah,Annual Grass Vegetation,Grass,15
752,TH-Sak,th.sakaeret.01,Sakaerat- Nakonrachasima,Thailand,Asia,Active,14.49333333,101.9219444,2001,AsiaFlux,(null),(null),Aw - Equatorial savannah with dry winter,470,Evergreen Broadleaf Forest,Evergreen Broadleaf Forest,Evergreen Broadleaf Forest,Evergreen Broadleaf Vegetation,Evergreen Broadleaf Trees,2
759,TW-Chn,tw.chilan.01,Chilan (TWCL),Taiwan,Asia,Active,24.59094444,121.4989722,2005,Unaffiliated,(null),(null),Cfa - Warm temperate fully humid with hot summer,457,Evergreen Broadleaf Forest,Evergreen Broadleaf Forest,Evergreen Broadleaf Forest,Evergreen Broadleaf Vegetation,Evergreen Broadleaf Trees,19
760,TW-Hui,tw.huisun.01,Huisun Forest Station (TWHS),Taiwan,Asia,Active,24.076,121.126,2006,AsiaFlux,(null),(null),Cfb - Warm temperate fully humid with warm summer,1292,Evergreen Broadleaf Forest,Evergreen Broadleaf Forest,Evergreen Broadleaf Forest,Evergreen Broadleaf Vegetation,Evergreen Broadleaf Trees,2
761,TW-Nch,tw.nchu.01,NCHU (TWNCHU),Taiwan,Asia,Active,24.12055556,120.6780556,2006,Unaffiliated,(null),(null),Cfa - Warm temperate fully humid with hot summer,54,Urban and Built-Up,Urban and Built-Up,Urban,Urban,Urban and built up,19
765,TW-Tar,tw.tari.01,TARI (TWTARI),Taiwan,Asia,Active,24.03122222,120.6883889,2005,Unaffiliated,(null),(null),Cfa - Warm temperate fully humid with hot summer,83,Croplands,Croplands,Grasses/Cereal Crops,Annual Grass Vegetation,Cereal crop,19
771,UK-AMo,uk.auchencorth.01,Auchencorth Moss- Scotland,United Kingdom,Europe,Active,55.79166667,-3.238888889,2002,CarboEurope-IP (EU-FP6),(null),(null),Cfb - Warm temperate fully humid with warm summer,265,Grasslands,Grasslands,Grasses/Cereal Crops,Annual Grass Vegetation,Grass,7
773,UK-Cas,uk.cairngorms.01,Cairngorms- Scotland,United Kingdom,Europe,Active,57.23333333,-3.5,2002,Carbomont (EU-FP5),(null),(null),Cfc - Warm temperate fully humid with cool summer,461,Mixed Forests,Mixed Forests,Evergreen Needleleaf Forest,Evergreen Needleleaf Vegetation,Evergreen Needleleaf Trees,9
775,UK-EBu,uk.easter_bush.01,Easter Bush- Scotland,United Kingdom,Europe,Active,55.866,-3.205777778,2004,CarboEurope-IP (EU-FP6),(null),(null),Cfb - Warm temperate fully humid with warm summer,208,Cropland/Natural Vegetation Mosaic,Grasslands,Grasses/Cereal Crops,Annual Grass Vegetation,Grass,7
776,UK-ESa,uk.esaltoun.01,East Saltoun,United Kingdom,Europe,Active,55.9069444,-2.85861111,2003,CarboEurope-IP (EU-FP6),(null),(null),Cfb - Warm temperate fully humid with warm summer,307,Croplands,Croplands,Grasses/Cereal Crops,Annual Grass Vegetation,Cereal crop,7
777,UK-Gri,uk.griffin.01,Griffin- Aberfeldy-Scotland,United Kingdom,Europe,Active,56.6072222,-3.79805556,1997,CarboEurope-IP (EU-FP6),CarboEuroFlux (EU-FP5),EuroFlux (EU-FP4),Cfb - Warm temperate fully humid with warm summer,343,Evergreen Needleleaf Forest,Evergreen Needleleaf Forest,Evergreen Needleleaf Forest,Evergreen Needleleaf Vegetation,Evergreen Needleleaf Trees,7
778,UK-Ham,uk.hampshire.01,Hampshire,United Kingdom,Europe,Active,51.153533,-0.8583,2004,CarboEurope-IP (EU-FP6),(null),(null),Cfb - Warm temperate fully humid with warm summer,76,Cropland/Natural Vegetation Mosaic,Deciduous Broadleaf Forest,Deciduous Broadleaf Forest,Deciduous Broadleaf Vegetation,Deciduous Broadleaf Trees,7
779,UK-Har,uk.harwood.01,Harwood,United Kingdom,Europe,Active,55.21272222,-2.037527777,2003,CarboEurope-IP (EU-FP6),(null),(null),Cfb - Warm temperate fully humid with warm summer,282,Evergreen Needleleaf Forest,Evergreen Needleleaf Forest,Evergreen Needleleaf Forest,Evergreen Needleleaf Vegetation,Evergreen Needleleaf Trees,7
780,UK-Her,uk.hertford.01,Hertfordshire,United Kingdom,Europe,Active,51.78379822,-0.47608,2004,CarboEurope-IP (EU-FP6),(null),(null),Cfb - Warm temperate fully humid with warm summer,142,Croplands,Croplands,Grasses/Cereal Crops,Annual Grass Vegetation,Cereal crop,7
781,UK-MoH,uk.moor_house.01,Moor House,United Kingdom,Europe,Active,54.69633333,-2.396383333,2004,Unaffiliated,(null),(null),Cfb - Warm temperate fully humid with warm summer,600,Mixed Forests,Mixed Forests,Evergreen Needleleaf Forest,Evergreen Needleleaf Vegetation,Evergreen Needleleaf Trees,19
783,UK-PL1,uk.pang.01,Pang/ Lambourne (crop),United Kingdom,Europe,Active,51.53329849,-1.483330011,2004,European Unaffiliated,(null),(null),Cfb - Warm temperate fully humid with warm summer,159,Croplands,Croplands,Grasses/Cereal Crops,Annual Grass Vegetation,Cereal crop,40
784,UK-PL2,uk.pang.02,Pang/ Lambourne (grassland),United Kingdom,Europe,Active,51.43330002,-1.233330011,2004,European Unaffiliated,(null),(null),Cfb - Warm temperate fully humid with warm summer,78,Cropland/Natural Vegetation Mosaic,Croplands,Grasses/Cereal Crops,Annual Grass Vegetation,Cereal crop,40
785,UK-PL3,uk.pang.03,Pang/ Lambourne (forest),United Kingdom,Europe,Active,51.45,-1.266666667,2004,CarboEurope-IP (EU-FP6),(null),(null),Cfb - Warm temperate fully humid with warm summer,104,Mixed Forests,Mixed Forests,Deciduous Broadleaf Forest,Deciduous Broadleaf Vegetation,Deciduous Broadleaf Trees,7
786,UK-Pol,uk.polden.01,Polden- Scotland,United Kingdom,Europe,Active,55.28683333,-3.4015,2002,Greengrass (EU-FP5),(null),(null),Cfb - Warm temperate fully humid with warm summer,180,Grasslands,Grasslands,Grasses/Cereal Crops,Annual Grass Vegetation,Grass,13
787,UK-Tad,uk.tadham_moor.01,Tadham Moor,United Kingdom,Europe,Active,51.20709991,-2.828639984,2000,CarboEuroFlux (EU-FP5),(null),(null),Cfb - Warm temperate fully humid with warm summer,28,Grasslands,Grasslands,Grasses/Cereal Crops,Annual Grass Vegetation,Grass,5
798,US-Ivo,us.ak_ivotuk.01,Ivotuk,United States,North America,Inactive,68.48647222,-155.748,2003,AmeriFlux,(null),(null),ET - Polar tundra,557,Open Shrublands,Open Shrublands,Shrubs,Annual Broadleaf Vegetation,Shrub,1
805,US-NSP,us.ames_prairie.01,Neal Smith Prairie,United States,North America,Active,41.55788056,-93.29618611,2005,Unaffiliated,(null),(null),Dfa - Snow with fully humid hot summer,269,Croplands,Croplands,Broadleaf Crops,Annual Broadleaf Vegetation,Broadleaf crop,19
806,US-Br1,us.ames_tl10.01,Brooks Field Site 10,United States,North America,Active,41.69148056,-93.69138611,2001,AmeriFlux,(null),(null),Dfa - Snow with fully humid hot summer,270,Cropland/Natural Vegetation Mosaic,Closed Shrublands,Shrubs,Annual Broadleaf Vegetation,Shrub,1
807,US-Br2,us.ames_tl1011.01,Brooks Field Site 1011,United States,North America,Active,41.97565278,-93.69251944,2005,AmeriFlux,(null),(null),Dfa - Snow with fully humid hot summer,313,Croplands,Croplands,Broadleaf Crops,Annual Broadleaf Vegetation,Broadleaf crop,1
808,US-Br3,us.ames_tl11.01,Brooks Field Site 11,United States,North America,Active,41.97471944,-93.69357222,2001,AmeriFlux,(null),(null),Dfa - Snow with fully humid hot summer,313,Croplands,Croplands,Broadleaf Crops,Annual Broadleaf Vegetation,Broadleaf crop,1
810,US-Atq,us.atqasuk.01,Atqasuk,United States,North America,Inactive,70.46961111,-157.4089444,1999,AmeriFlux,MARCONI,(null),ET - Polar tundra,15,Grasslands,Grasslands,Grasses/Cereal Crops,Annual Grass Vegetation,Grass,1
811,US-Aud,us.audubon.01,Audubon Research Ranch,United States,North America,Active,31.5907,-110.5092,2002,AmeriFlux,(null),(null),BSk - Arid Steppe cold,1466,Open Shrublands,Open Shrublands,Shrubs,Annual Broadleaf Vegetation,Shrub,1
814,US-Wkg,us.az_kendall_grassland.01,Walnut Gulch Kendall Grasslands,United States,North America,Active,31.736527,-109.94188,2003,AmeriFlux,AGRIFLUX,(null),BSk - Arid Steppe cold,1524,Grasslands,Grasslands,Grasses/Cereal Crops,Annual Grass Vegetation,Grass,1
815,US-LSM,us.az_lewissprings_mesquite.01,Lewis Springs Mesquite,United States,North America,Active,31.56584,-110.13438,2001,Unaffiliated,(null),(null),BSk - Arid Steppe cold,1238,Open Shrublands,Open Shrublands,Shrubs,Annual Broadleaf Vegetation,Shrub,19
816,US-Whs,us.az_luckyhills_shrub.01,Walnut Gulch Lucky Hills Shrubland,United States,North America,Active,31.743833,-110.052222,2003,Unaffiliated,AGRIFLUX,(null),BSk - Arid Steppe cold,1366,Open Shrublands,Open Shrublands,Shrubs,Annual Broadleaf Vegetation,Shrub,19
818,US-MtB,us.az_mtbigelow.01,Mt Bigelow,United States,North America,Active,32.41666667,-110.7255139,2002,Unaffiliated,(null),(null),BSk - Arid Steppe cold,2446,Woody Savannas,Woody Savannas,Savannah,Evergreen Needleleaf Vegetation,Shrub,19
822,US-Brw,us.barrow.01,Barrow,United States,North America,Active,71.322525,-156.6258806,1993,AmeriFlux,AERONET,MARCONI,ET - Polar tundra,1,Snow and Ice,Barren or Sparsely Vegetated,Unvegetated,Non-Vegetated Land,Snow and Ice,1
823,US-Bar,us.bartlett.01,Bartlett Experimental Forest,United States,North America,Active,44.06463967,-71.28807685,2004,AmeriFlux,(null),(null),Dfb - Snow fully humid warm summer,270,Mixed Forests,Mixed Forests,Deciduous Broadleaf Forest,Deciduous Broadleaf Vegetation,Deciduous Broadleaf Trees,1
825,US-Blk,us.blackhills_sd_ponderosa.01,Black Hills,United States,North America,Inactive,44.158,-103.65,1999,AmeriFlux,(null),(null),Dfb - Snow fully humid warm summer,1743,Evergreen Needleleaf Forest,Evergreen Needleleaf Forest,Evergreen Needleleaf Forest,Evergreen Needleleaf Vegetation,Evergreen Needleleaf Trees,1
826,US-Blo,us.blodgett_forest.01,Blodgett Forest,United States,North America,Inactive,38.89525,-120.63275,1997,AmeriFlux,MARCONI,(null),"Csb - Warm temperate with dry, warm summer",1280,Evergreen Needleleaf Forest,Evergreen Needleleaf Forest,Evergreen Needleleaf Forest,Evergreen Needleleaf Vegetation,Evergreen Needleleaf Trees,1
830,US-Bo1,us.bondville.01,Bondville,United States,North America,Active,40.0062,-88.2904,1996,AmeriFlux,AERONET,MARCONI,Dfa - Snow with fully humid hot summer,217,Croplands,Croplands,Broadleaf Crops,Annual Broadleaf Vegetation,Broadleaf crop,1
831,US-Bo2,us.bondville.02,Bondville (companion site),United States,North America,Inactive,40.0061,-88.2918,2004,AmeriFlux,(null),(null),Dfa - Snow with fully humid hot summer,218,Croplands,Croplands,Broadleaf Crops,Annual Broadleaf Vegetation,Broadleaf crop,1
833,US-Bkg,us.brookings.01,Brookings,United States,North America,Active,44.34529,-96.83617,2004,AmeriFlux,(null),(null),Dfa - Snow with fully humid hot summer,495,Croplands,Croplands,Broadleaf Crops,Annual Broadleaf Vegetation,Broadleaf crop,1
844,US-CaV,us.canaan_valley.01,Canaan Valley,United States,North America,Active,39.0633,-79.4208,2004,AmeriFlux,(null),(null),Cfb - Warm temperate fully humid with warm summer,975,Cropland/Natural Vegetation Mosaic,Croplands,Broadleaf Crops,Annual Broadleaf Vegetation,Broadleaf crop,1
845,US-ChR,us.chestnut_ridge.01,Chestnut Ridge,United States,North America,Active,35.931093,-84.332424,2006,AmeriFlux,(null),(null),Cfa - Warm temperate fully humid with hot summer,290,Deciduous Broadleaf Forest,Deciduous Broadleaf Forest,Deciduous Broadleaf Forest,Deciduous Broadleaf Vegetation,Deciduous Broadleaf Trees,1
863,US-Co1,us.crp_grazed.01,CRP Grazed site,United States,North America,Inactive,40.72514,-104.30138,2003,Unaffiliated,(null),(null),BSk - Arid Steppe cold,1526,Grasslands,Grasslands,Grasses/Cereal Crops,Annual Grass Vegetation,Grass,19
864,US-Co2,us.crp_mintill.01,CRP Minimum-Till site,United States,North America,Inactive,40.7345,-104.30128,2003,Unaffiliated,(null),(null),BSk - Arid Steppe cold,1528,Grasslands,Grasslands,Grasses/Cereal Crops,Annual Grass Vegetation,Grass,19
865,US-Co3,us.crp_ungrazed.01,CRP Ungrazed site,United States,North America,Inactive,40.72965,-104.30134,2003,Unaffiliated,(null),(null),BSk - Arid Steppe cold,1526,Grasslands,Grasslands,Grasses/Cereal Crops,Annual Grass Vegetation,Grass,19
866,US-Cyp,us.cypress_bald.01,Cypress wetland,United States,North America,Inactive,29.77043333,-82.2081,1994,Unaffiliated,(null),(null),Cfa - Warm temperate fully humid with hot summer,46,Mixed Forests,Mixed Forests,Evergreen Broadleaf Forest,Evergreen Broadleaf Vegetation,Evergreen Broadleaf Trees,19
867,US-Dk1,us.duke_grassyfield.01,Duke Forest Open Field,United States,North America,Active,35.9712024,-79.09337586,2001,AmeriFlux,(null),(null),Cfa - Warm temperate fully humid with hot summer,166,Mixed Forests,Mixed Forests,Evergreen Broadleaf Forest,Evergreen Broadleaf Vegetation,Evergreen Broadleaf Trees,1
2816,CN-Tbs,cn.tibet.01,Tibet Grassland Site,China,Asia,Inactive,31.37,91.9,1998,AsiaFlux,(null),(null),ET - Polar tundra,(null),Grasslands,Grasslands,Grasses/Cereal Crops,Annual Grass Vegetation,Grass,2
868,US-Dk2,us.duke_hardwoods.01,Duke Forest Hardwoods,United States,North America,Active,35.97358231,-79.10043042,2000,AmeriFlux,(null),(null),Cfa - Warm temperate fully humid with hot summer,169,Mixed Forests,Mixed Forests,Deciduous Broadleaf Forest,Deciduous Broadleaf Vegetation,Deciduous Broadleaf Trees,1
869,US-Dk3,us.duke_loblolly.01,Duke Forest Loblolly Pine,United States,North America,Active,35.97816586,-79.09419557,1997,AmeriFlux,MARCONI,(null),Cfa - Warm temperate fully humid with hot summer,169,Mixed Forests,Mixed Forests,Evergreen Broadleaf Forest,Evergreen Broadleaf Vegetation,Evergreen Broadleaf Trees,1
871,US-Skr,us.fl_everglades_mangrove.01,Florida Everglades - Shark River Slough (Mangrove Forest),United States,North America,Active,25.36463056,-81.07794611,2003,AmeriFlux,(null),(null),Aw - Equatorial savannah with dry winter,1,Permanent Wetlands,Evergreen Broadleaf Forest,Evergreen Broadleaf Forest,Evergreen Broadleaf Vegetation,Evergreen Broadleaf Trees,1
873,US-FPe,us.fort_peck.01,Fort Peck,United States,North America,Active,48.3077,-105.1019,1999,AmeriFlux,(null),(null),BSk - Arid Steppe cold,638,Grasslands,Grasslands,Grasses/Cereal Crops,Annual Grass Vegetation,Grass,1
874,US-FR1,us.freeman_grassland.01,Freeman Ranch- Grassland,United States,North America,Active,29.93,-98.01,2004,AmeriFlux,(null),(null),Cfa - Warm temperate fully humid with hot summer,243,Grasslands,Grasslands,Grasses/Cereal Crops,Annual Grass Vegetation,Grass,1
875,US-FR2,us.freeman_transition.01,Freeman Ranch- Mesquite Juniper,United States,North America,Active,29.94948932,-97.99622779,2004,AmeriFlux,(null),(null),Cfa - Warm temperate fully humid with hot summer,260,Cropland/Natural Vegetation Mosaic,Grasslands,Grasses/Cereal Crops,Annual Grass Vegetation,Grass,1
876,US-FR3,us.freeman_woodland.01,Freeman Ranch- Woodland,United States,North America,Active,29.94,-97.99,2004,AmeriFlux,(null),(null),Cfa - Warm temperate fully humid with hot summer,243,Woody Savannas,Woody Savannas,Savannah,Annual Grass Vegetation,Grass,1
881,US-GLE,us.glacierlake.01,GLEES,United States,North America,Active,41.3644,-106.2394,1999,AmeriFlux,(null),(null),Dfb - Snow fully humid warm summer,3150,Evergreen Needleleaf Forest,Evergreen Needleleaf Forest,Evergreen Needleleaf Forest,Evergreen Needleleaf Vegetation,Evergreen Needleleaf Trees,1
882,US-Goo,us.goodwin_creek.01,Goodwin Creek,United States,North America,Inactive,34.2547,-89.8735,2002,AmeriFlux,(null),(null),Cfa - Warm temperate fully humid with hot summer,90,Cropland/Natural Vegetation Mosaic,Mixed Forests,Deciduous Broadleaf Forest,Deciduous Broadleaf Vegetation,Deciduous Broadleaf Trees,1
883,US-GMF,us.greatmtn_CT.01,Great Mountain,United States,North America,Inactive,41.96666667,-73.23333333,1999,AmeriFlux,(null),(null),Dfb - Snow fully humid warm summer,474,Mixed Forests,Mixed Forests,Deciduous Broadleaf Forest,Deciduous Broadleaf Vegetation,Deciduous Broadleaf Trees,1
884,US-HVa,us.happy_valley.01,Happy Valley,United States,North America,Inactive,69.14233,-148.84117,1993,AmeriFlux,MARCONI,(null),Dfc - Snow fully humid cool summer,303,Open Shrublands,Open Shrublands,Shrubs,Annual Broadleaf Vegetation,Shrub,1
886,US-Ha1,us.harvard_forest.01,Harvard Forest EMS Tower (HFR1),United States,North America,Active,42.53775556,-72.17147778,1991,AmeriFlux,LTER,AERONET,Dfb - Snow fully humid warm summer,353,Mixed Forests,Mixed Forests,Deciduous Broadleaf Forest,Deciduous Broadleaf Vegetation,Deciduous Broadleaf Trees,1
887,US-Ha2,us.harvard_forest_hemlock.01,Harvard Forest Hemlock Site,United States,North America,Active,42.53933333,-72.17794444,2000,AmeriFlux,(null),(null),Dfb - Snow fully humid warm summer,365,Mixed Forests,Mixed Forests,Deciduous Broadleaf Forest,Deciduous Broadleaf Vegetation,Deciduous Broadleaf Trees,1
890,US-Ho1,us.howland.01,Howland Forest (Main Tower),United States,North America,Active,45.2041,-68.7402,1995,AmeriFlux,MARCONI,(null),Dfb - Snow fully humid warm summer,72,Mixed Forests,Mixed Forests,Evergreen Needleleaf Forest,Evergreen Needleleaf Vegetation,Evergreen Needleleaf Trees,1
891,US-Ho2,us.howland.02,Howland Forest (West Tower),United States,North America,Active,45.20912,-68.747,1999,AmeriFlux,(null),(null),Dfb - Snow fully humid warm summer,82,Mixed Forests,Mixed Forests,Evergreen Needleleaf Forest,Evergreen Needleleaf Vegetation,Evergreen Needleleaf Trees,1
892,US-Ho3,us.howland.03,Howland Forest (East Tower Harvest Site),United States,North America,Active,45.20722,-68.725,2001,AmeriFlux,(null),(null),Dfb - Snow fully humid warm summer,62,Mixed Forests,Mixed Forests,Deciduous Broadleaf Forest,Deciduous Broadleaf Vegetation,Deciduous Broadleaf Trees,1
899,US-IB1,us.il_bat_ag.01,Fermi National Accelerator Laboratory - (Agricultural site),United States,North America,Active,41.8593,-88.22273333,2005,AmeriFlux,(null),(null),Dfa - Snow with fully humid hot summer,220,Croplands,Croplands,Broadleaf Crops,Annual Broadleaf Vegetation,Broadleaf crop,1
900,US-IB2,us.il_bat_prairie.01,Fermi National Accelerator Laboratory - (Prairie site),United States,North America,Active,41.84061667,-88.24103333,2004,AmeriFlux,(null),(null),Dfa - Snow with fully humid hot summer,228,Cropland/Natural Vegetation Mosaic,Croplands,Broadleaf Crops,Annual Broadleaf Vegetation,Broadleaf crop,1
911,US-Jas,us.jasper_ridge.01,Jasper Ridge,United States,North America,Active,37.40213208,-122.2210281,1998,Unaffiliated,(null),(null),"Csb - Warm temperate with dry, warm summer",181,Woody Savannas,Woody Savannas,Savannah,Evergreen Broadleaf Vegetation,Shrub,19
915,US-Kon,us.konza.01,Konza Prairie,United States,North America,Active,39.0823925,-96.56027694,1996,Unaffiliated,LTER,AERONET,Cfa - Warm temperate fully humid with hot summer,430,Grasslands,Grasslands,Grasses/Cereal Crops,Annual Grass Vegetation,Grass,19
916,US-Man,us.ks_cedarforest.01,Manhattan (cedar forest 30 km N),United States,North America,Active,39.46,-96.757,1997,Unaffiliated,(null),(null),Cfa - Warm temperate fully humid with hot summer,354,Woody Savannas,Woody Savannas,Savannah,Evergreen Needleleaf Vegetation,Shrub,19
920,US-Ra1,us.ks_rannellsranch.01,Rannells Ranch (ungrazed),United States,North America,Active,39.139,-96.523,1997,Unaffiliated,(null),(null),Cfa - Warm temperate fully humid with hot summer,409,Grasslands,Grasslands,Grasses/Cereal Crops,Annual Grass Vegetation,Grass,19
921,US-Ra2,us.ks_rannellsranch.02,Rannells Ranch (grazed),United States,North America,Active,39.14049722,-96.52704722,1997,Unaffiliated,(null),(null),Cfa - Warm temperate fully humid with hot summer,402,Grasslands,Grasslands,Grasses/Cereal Crops,Annual Grass Vegetation,Grass,19
922,US-KS1,us.ksc_pine_flatwoods.01,Kennedy Space Center (slash pine),United States,North America,Inactive,28.45830448,-80.67090255,2001,AmeriFlux,(null),(null),Cfa - Warm temperate fully humid with hot summer,1,Mixed Forests,Mixed Forests,Deciduous Broadleaf Forest,Deciduous Broadleaf Vegetation,Deciduous Broadleaf Trees,1
923,US-KS2,us.ksc_scruboak.01,Kennedy Space Center (scrub oak),United States,North America,Inactive,28.60857739,-80.67153396,1999,AmeriFlux,(null),(null),Cfa - Warm temperate fully humid with hot summer,1,Woody Savannas,Woody Savannas,Savannah,Deciduous Broadleaf Vegetation,Shrub,1
929,US-ARM,us.lamont.01,ARM Southern Great Plains site,United States,North America,Active,36.6058,-97.4888,2000,AmeriFlux,AERONET,(null),Cfa - Warm temperate fully humid with hot summer,312,Croplands,Croplands,Grasses/Cereal Crops,Annual Grass Vegetation,Cereal crop,1
930,US-LWW,us.little_washita.01,Little Washita Watershed,United States,North America,Inactive,34.9604,-97.978895,1995,AmeriFlux,MARCONI,(null),Cfa - Warm temperate fully humid with hot summer,365,Grasslands,Grasslands,Grasses/Cereal Crops,Annual Grass Vegetation,Grass,1
931,US-Los,us.lost_creek.01,Lost Creek,United States,North America,Active,46.08268,-89.97919,2000,AmeriFlux,(null),(null),Dfb - Snow fully humid warm summer,485,Mixed Forests,Mixed Forests,Deciduous Broadleaf Forest,Deciduous Broadleaf Vegetation,Deciduous Broadleaf Trees,1
935,US-LPH,us.ma_little_prospect_hill.01,Little Prospect Hill,United States,North America,Active,42.54186111,-72.18496389,2002,AmeriFlux,(null),(null),Dfb - Snow fully humid warm summer,351,Deciduous Broadleaf Forest,Deciduous Broadleaf Forest,Deciduous Broadleaf Forest,Deciduous Broadleaf Vegetation,Deciduous Broadleaf Trees,1
944,US-Cub,us.md_baltimore.01,Cub Hill (Baltimore),United States,North America,Active,39.41251389,-76.5208,2001,Urban Fluxnet,(null),(null),Cfa - Warm temperate fully humid with hot summer,137,Urban and Built-Up,Urban and Built-Up,Urban,Urban,Urban and built up,22
947,US-Age,us.me_argyle.01,Argyle,United States,North America,Inactive,45.0344,-68.68203333,2004,Unaffiliated,(null),(null),Dfb - Snow fully humid warm summer,44,Mixed Forests,Mixed Forests,Deciduous Broadleaf Forest,Deciduous Broadleaf Vegetation,Deciduous Broadleaf Trees,19
951,US-Ne1,us.mead_maize.01,Mead - irrigated continuous maize site,United States,North America,Active,41.165056,-96.476638,2001,AmeriFlux,(null),(null),Dfa - Snow with fully humid hot summer,355,Croplands,Croplands,Broadleaf Crops,Annual Broadleaf Vegetation,Broadleaf crop,1
952,US-Ne2,us.mead_maize_soybean_irrigated.01,Mead - irrigated maize-soybean rotation site,United States,North America,Active,41.164871,-96.4701,2001,AmeriFlux,(null),(null),Dfa - Snow with fully humid hot summer,355,Croplands,Croplands,Broadleaf Crops,Annual Broadleaf Vegetation,Broadleaf crop,1
953,US-Ne3,us.mead_maize_soybean_rainfed.01,Mead - rainfed maize-soybean rotation site,United States,North America,Active,41.179667,-96.439646,2001,AmeriFlux,(null),(null),Dfa - Snow with fully humid hot summer,356,Croplands,Croplands,Broadleaf Crops,Annual Broadleaf Vegetation,Broadleaf crop,1
954,US-Me1,us.metolius_eyerlyburn.01,Metolius Eyerly Burn,United States,North America,Inactive,44.5794,-121.5,2004,AmeriFlux,(null),(null),"Csb - Warm temperate with dry, warm summer",885,Croplands,Croplands,Grasses/Cereal Crops,Annual Grass Vegetation,Cereal crop,1
955,US-Me2,us.metolius_int.01,Metolius Intermediate Pine,United States,North America,Active,44.4523,-121.5574,2003,AmeriFlux,(null),(null),"Csb - Warm temperate with dry, warm summer",1237,Evergreen Needleleaf Forest,Evergreen Needleleaf Forest,Evergreen Needleleaf Forest,Evergreen Needleleaf Vegetation,Evergreen Needleleaf Trees,1
956,US-Me3,us.metolius_newyng.01,Metolius Second Young Pine,United States,North America,Inactive,44.3154,-121.6078,2003,AmeriFlux,(null),(null),"Csb - Warm temperate with dry, warm summer",1010,Evergreen Needleleaf Forest,Evergreen Needleleaf Forest,Evergreen Needleleaf Forest,Evergreen Needleleaf Vegetation,Evergreen Needleleaf Trees,1
957,US-Me4,us.metolius_old.01,Metolius Old Pine,United States,North America,Inactive,44.4992,-121.6224,1996,AmeriFlux,MARCONI,(null),"Csb - Warm temperate with dry, warm summer",915,Evergreen Needleleaf Forest,Evergreen Needleleaf Forest,Evergreen Needleleaf Forest,Evergreen Needleleaf Vegetation,Evergreen Needleleaf Trees,1
958,US-Me5,us.metolius_yng.01,Metolius First Young Pine,United States,North America,Inactive,44.43718949,-121.566756,1999,AmeriFlux,(null),(null),"Csb - Warm temperate with dry, warm summer",1192,Evergreen Needleleaf Forest,Evergreen Needleleaf Forest,Evergreen Needleleaf Forest,Evergreen Needleleaf Vegetation,Evergreen Needleleaf Trees,1
